{
  "10001": [
    {
      "BOROUGH": "Manhattan",
      "NAME": "AVENUES NEW YORK SCHOOL",
      "FACILITY_T": "Education Facility",
      "FACILITY_DOMAIN_NAME": "Private/Parochial K-12 all grades",
      "LNG": -74.00326602663219,
      "LAT": 40.74938020498927,
      "DISTANCE_TO_FACILITY": 0.8149422023646338
    },
    {
      "BOROUGH": "Manhattan",
      "NAME": "CHELSEA PARK",
      "FACILITY_T": "Recreational Facility",
      "FACILITY_DOMAIN_NAME": "Playground",
      "LNG": -74.00048286212566,
      "LAT": 40.749893883163196,
      "DISTANCE_TO_FACILITY": 0.4489926648348259
    },
    {
      "BOROUGH": "Manhattan",
      "NAME": "CHELSEA RECREATION CENTER",
      "FACILITY_T": "Recreational Facility",
      "FACILITY_DOMAIN_NAME": "Recreational Center",
      "LNG": -74.00228472889118,
      "LAT": 40.748337878702465,
      "DISTANCE_TO_FACILITY": 0.8217163709485362
    },
    {
      "BOROUGH": "Manhattan",
      "NAME": "COOKE CENTER ACADEMY SKILLS",
      "FACILITY_T": "Education Facility",
      "FACILITY_DOMAIN_NAME": "Private/Parochial High School",
      "LNG": -73.99540891547397,
      "LAT": 40.74874184890167,
      "DISTANCE_TO_FACILITY": 0.40617515430256645
    },
    {
      "BOROUGH": "Manhattan",
      "NAME": "FIT BUSINESS & LIBERAL ARTS CTR",
      "FACILITY_T": "Education Facility",
      "FACILITY_DOMAIN_NAME": "Post Secondary Degree Granting Institution",
      "LNG": -73.99544817135452,
      "LAT": 40.747591336999214,
      "DISTANCE_TO_FACILITY": 0.529524572734303
    },
    {
      "BOROUGH": "Manhattan",
      "NAME": "FIT DAVID DUBINSKY STUDENT CTR",
      "FACILITY_T": "Education Facility",
      "FACILITY_DOMAIN_NAME": "Post Secondary Degree Granting Institution",
      "LNG": -73.99607236477947,
      "LAT": 40.74781873267638,
      "DISTANCE_TO_FACILITY": 0.434998182400669
    },
    {
      "BOROUGH": "Manhattan",
      "NAME": "FIT FACULTY HALL",
      "FACILITY_T": "Education Facility",
      "FACILITY_DOMAIN_NAME": "Post Secondary Degree Granting Institution",
      "LNG": -73.99578762620561,
      "LAT": 40.74727771898701,
      "DISTANCE_TO_FACILITY": 0.5266566836186328
    },
    {
      "BOROUGH": "Manhattan",
      "NAME": "HIGH LINE W 26 ST ENTRANCE",
      "FACILITY_T": "Recreational Facility",
      "FACILITY_DOMAIN_NAME": "Park",
      "LNG": -74.00331033056406,
      "LAT": 40.749855923941155,
      "DISTANCE_TO_FACILITY": 0.7670551351435009
    },
    {
      "BOROUGH": "Manhattan",
      "NAME": "HIGH SCHOOL OF FASHION INDUSTRIES",
      "FACILITY_T": "Education Facility",
      "FACILITY_DOMAIN_NAME": "Public High School",
      "LNG": -73.9964350624209,
      "LAT": 40.74552874447443,
      "DISTANCE_TO_FACILITY": 0.6489274346179812
    },
    {
      "BOROUGH": "Manhattan",
      "NAME": "HOLY APOSTLES CHURCH",
      "FACILITY_T": "Religious Institution",
      "FACILITY_DOMAIN_NAME": "Church",
      "LNG": -73.99890511648003,
      "LAT": 40.749323297428276,
      "DISTANCE_TO_FACILITY": 0.337197914745623
    },
    {
      "BOROUGH": "Manhattan",
      "NAME": "HUDSON GUILD JOHN LOVEJOY ELLIOTT CENTER",
      "FACILITY_T": "Recreational Facility",
      "FACILITY_DOMAIN_NAME": "Recreational Center",
      "LNG": -74.00156389477165,
      "LAT": 40.74963516566871,
      "DISTANCE_TO_FACILITY": 0.5977049304274331
    },
    {
      "BOROUGH": "Manhattan",
      "NAME": "KESWELL SCHOOL",
      "FACILITY_T": "Education Facility",
      "FACILITY_DOMAIN_NAME": "Private/Parochial Elementary School",
      "LNG": -73.99882921054483,
      "LAT": 40.74733277232026,
      "DISTANCE_TO_FACILITY": 0.5497206429273476
    },
    {
      "BOROUGH": "Manhattan",
      "NAME": "MANOR COMMUNITY CHURCH",
      "FACILITY_T": "Religious Institution",
      "FACILITY_DOMAIN_NAME": "Church",
      "LNG": -73.99911790660342,
      "LAT": 40.74786347197199,
      "DISTANCE_TO_FACILITY": 0.5228582440891927
    },
    {
      "BOROUGH": "Manhattan",
      "NAME": "PENN SOUTH PLAYGROUND",
      "FACILITY_T": "Recreational Facility",
      "FACILITY_DOMAIN_NAME": "Playground",
      "LNG": -73.99870963619905,
      "LAT": 40.747615694756796,
      "DISTANCE_TO_FACILITY": 0.5050435000912614
    },
    {
      "BOROUGH": "Manhattan",
      "NAME": "PS 33 CHELSEA PREP",
      "FACILITY_T": "Education Facility",
      "FACILITY_DOMAIN_NAME": "Public Elementary School",
      "LNG": -74.0000952976716,
      "LAT": 40.74902665520736,
      "DISTANCE_TO_FACILITY": 0.5022353135322177
    },
    {
      "BOROUGH": "Manhattan",
      "NAME": "ST COLUMBA CHURCH",
      "FACILITY_T": "Religious Institution",
      "FACILITY_DOMAIN_NAME": "Church",
      "LNG": -73.9990170355689,
      "LAT": 40.747400533049834,
      "DISTANCE_TO_FACILITY": 0.563047779616781
    },
    {
      "BOROUGH": "Manhattan",
      "NAME": "ST ELEFTHERIOS CHURCH",
      "FACILITY_T": "Religious Institution",
      "FACILITY_DOMAIN_NAME": "Church",
      "LNG": -74.00013289216801,
      "LAT": 40.74715348850448,
      "DISTANCE_TO_FACILITY": 0.6217771933480165
    },
    {
      "BOROUGH": "Manhattan",
      "NAME": "TECHNICAL CAREER INSTITUTE",
      "FACILITY_T": "Education Facility",
      "FACILITY_DOMAIN_NAME": "Post Secondary Degree Granting Institution",
      "LNG": -73.99604398411802,
      "LAT": 40.750611937630524,
      "DISTANCE_TO_FACILITY": 0.12810268591127993
    }
  ],
  "10002": [
    {
      "BOROUGH": "Manhattan",
      "NAME": "JOHN STREET LAWN",
      "FACILITY_T": "Recreational Facility",
      "FACILITY_DOMAIN_NAME": "Park",
      "LNG": -73.98710514288886,
      "LAT": 40.70492657595974,
      "DISTANCE_TO_FACILITY": 1.3033139291336369
    },
    {
      "BOROUGH": "Manhattan",
      "NAME": "JOHN STREET PARK",
      "FACILITY_T": "Recreational Facility",
      "FACILITY_DOMAIN_NAME": "Park",
      "LNG": -73.98792834136161,
      "LAT": 40.704821040213,
      "DISTANCE_TO_FACILITY": 1.4064034274964996
    },
    {
      "BOROUGH": "Manhattan",
      "NAME": "MANHATTAN BRIDGE BIKE",
      "FACILITY_T": "Transportation Facility",
      "FACILITY_DOMAIN_NAME": "Bridge",
      "LNG": -73.98914662747895,
      "LAT": 40.704978040645166,
      "DISTANCE_TO_FACILITY": 1.3145078614505223
    },
    {
      "BOROUGH": "Manhattan",
      "NAME": "MANHATTAN BRIDGE LOWER LEVEL",
      "FACILITY_T": "Transportation Facility",
      "FACILITY_DOMAIN_NAME": "Bridge",
      "LNG": -73.98934518702791,
      "LAT": 40.70508887253184,
      "DISTANCE_TO_FACILITY": 1.3047700909363158
    },
    {
      "BOROUGH": "Manhattan",
      "NAME": "MANHATTAN BRIDGE NB RB",
      "FACILITY_T": "Transportation Facility",
      "FACILITY_DOMAIN_NAME": "Bridge",
      "LNG": -73.98925383147564,
      "LAT": 40.70504895187245,
      "DISTANCE_TO_FACILITY": 1.3104793640461878
    },
    {
      "BOROUGH": "Manhattan",
      "NAME": "MANHATTAN BRIDGE SB RB",
      "FACILITY_T": "Transportation Facility",
      "FACILITY_DOMAIN_NAME": "Bridge",
      "LNG": -73.98952615544583,
      "LAT": 40.70505221024784,
      "DISTANCE_TO_FACILITY": 1.2806130830233755
    },
    {
      "BOROUGH": "Manhattan",
      "NAME": "MANHATTAN BRIDGE UPPER LEVEL",
      "FACILITY_T": "Transportation Facility",
      "FACILITY_DOMAIN_NAME": "Bridge",
      "LNG": -73.98948018281791,
      "LAT": 40.70510159054139,
      "DISTANCE_TO_FACILITY": 1.2911972573057326
    },
    {
      "BOROUGH": "Manhattan",
      "NAME": "PEARL STREET TERRACE",
      "FACILITY_T": "Recreational Facility",
      "FACILITY_DOMAIN_NAME": "Park",
      "LNG": -73.98744526056618,
      "LAT": 40.70491617963413,
      "DISTANCE_TO_FACILITY": 1.3422209834574943
    },
    {
      "BOROUGH": "Manhattan",
      "NAME": "WEST STREET PIER",
      "FACILITY_T": "Transportation Facility",
      "FACILITY_DOMAIN_NAME": "Pier",
      "LNG": -73.97855806833613,
      "LAT": 40.70545515109982,
      "DISTANCE_TO_FACILITY": 1.9950896426093863
    },
    {
      "BOROUGH": "Manhattan",
      "NAME": "7 PRECINCT",
      "FACILITY_T": "Public Safety",
      "FACILITY_DOMAIN_NAME": "NYPD Precinct",
      "LNG": -73.98385529296712,
      "LAT": 40.71638629423031,
      "DISTANCE_TO_FACILITY": 0.3294481402134579
    },
    {
      "BOROUGH": "Manhattan",
      "NAME": "ABC PLAYGROUND",
      "FACILITY_T": "Recreational Facility",
      "FACILITY_DOMAIN_NAME": "Playground",
      "LNG": -73.98619949132735,
      "LAT": 40.7218520173092,
      "DISTANCE_TO_FACILITY": 0.6759373839844969
    },
    {
      "BOROUGH": "Manhattan",
      "NAME": "AHEARN PARK",
      "FACILITY_T": "Recreational Facility",
      "FACILITY_DOMAIN_NAME": "Park",
      "LNG": -73.98353342098787,
      "LAT": 40.71477681533509,
      "DISTANCE_TO_FACILITY": 0.40812076815088005
    },
    {
      "BOROUGH": "Manhattan",
      "NAME": "ALLEN MALLS",
      "FACILITY_T": "Recreational Facility",
      "FACILITY_DOMAIN_NAME": "Park",
      "LNG": -73.99197815862948,
      "LAT": 40.71619044626274,
      "DISTANCE_TO_FACILITY": 0.6861581430371686
    },
    {
      "BOROUGH": "Manhattan",
      "NAME": "BATTALION 4 ENGINE 15 LADDER 18",
      "FACILITY_T": "Public Safety",
      "FACILITY_DOMAIN_NAME": "FDNY Battalion",
      "LNG": -73.9837130850921,
      "LAT": 40.71653962713665,
      "DISTANCE_TO_FACILITY": 0.3622531669434892
    },
    {
      "BOROUGH": "Manhattan",
      "NAME": "BETH JACOB SCHOOLS",
      "FACILITY_T": "Education Facility",
      "FACILITY_DOMAIN_NAME": "Private/Parochial K-8",
      "LNG": -73.98427154624909,
      "LAT": 40.71649175943164,
      "DISTANCE_TO_FACILITY": 0.2949506632624548
    },
    {
      "BOROUGH": "Manhattan",
      "NAME": "BIALYSTOKER SYNAGOGUE",
      "FACILITY_T": "Religious Institution",
      "FACILITY_DOMAIN_NAME": "Synagogue",
      "LNG": -73.98326355081227,
      "LAT": 40.71550466393668,
      "DISTANCE_TO_FACILITY": 0.35728516286658873
    },
    {
      "BOROUGH": "Manhattan",
      "NAME": "BRIAN WATKINS TENNIS CENTER",
      "FACILITY_T": "Recreational Facility",
      "FACILITY_DOMAIN_NAME": "Sports",
      "LNG": -73.97557127262735,
      "LAT": 40.7154979259629,
      "DISTANCE_TO_FACILITY": 1.211875956481876
    },
    {
      "BOROUGH": "Manhattan",
      "NAME": "CAPTAIN JACOB JOSEPH PLAYGROUND",
      "FACILITY_T": "Recreational Facility",
      "FACILITY_DOMAIN_NAME": "Playground",
      "LNG": -73.98984536433514,
      "LAT": 40.71354212479284,
      "DISTANCE_TO_FACILITY": 0.6511525891960801
    },
    {
      "BOROUGH": "Manhattan",
      "NAME": "CHERRY CLINTON PLAYGROUND",
      "FACILITY_T": "Recreational Facility",
      "FACILITY_DOMAIN_NAME": "Playground",
      "LNG": -73.9863338805361,
      "LAT": 40.71134591678411,
      "DISTANCE_TO_FACILITY": 0.5051569764707224
    },
    {
      "BOROUGH": "Manhattan",
      "NAME": "CHILDRENS MAGICAL GARDEN",
      "FACILITY_T": "Recreational Facility",
      "FACILITY_DOMAIN_NAME": "Park",
      "LNG": -73.98640198279654,
      "LAT": 40.72072647524163,
      "DISTANCE_TO_FACILITY": 0.5707018422365877
    },
    {
      "BOROUGH": "Manhattan",
      "NAME": "CHINESE MISSIONARY BAPTIST CHURCH",
      "FACILITY_T": "Religious Institution",
      "FACILITY_DOMAIN_NAME": "Church",
      "LNG": -73.9907305443342,
      "LAT": 40.71320096734239,
      "DISTANCE_TO_FACILITY": 0.7872760460915984
    },
    {
      "BOROUGH": "Manhattan",
      "NAME": "CLINTON COMMUNITY GARDEN (LES) STANTON ST",
      "FACILITY_T": "Recreational Facility",
      "FACILITY_DOMAIN_NAME": "Garden",
      "LNG": -73.98442648888822,
      "LAT": 40.72005790245597,
      "DISTANCE_TO_FACILITY": 0.6735939060198319
    },
    {
      "BOROUGH": "Manhattan",
      "NAME": "COLEMAN PLAYGROUND",
      "FACILITY_T": "Recreational Facility",
      "FACILITY_DOMAIN_NAME": "Playground",
      "LNG": -73.9935458270093,
      "LAT": 40.711244245842465,
      "DISTANCE_TO_FACILITY": 1.2190484904813985
    },
    {
      "BOROUGH": "Manhattan",
      "NAME": "COOKE CENTER GRAMMAR SCHOOL",
      "FACILITY_T": "Education Facility",
      "FACILITY_DOMAIN_NAME": "Private/Parochial Elementary School",
      "LNG": -73.98218219542065,
      "LAT": 40.719419701081534,
      "DISTANCE_TO_FACILITY": 0.8518701283576817
    },
    {
      "BOROUGH": "Manhattan",
      "NAME": "CORLEARS HOOK FERRY LANDING",
      "FACILITY_T": "Transportation Facility",
      "FACILITY_DOMAIN_NAME": "Ferry landing/terminal",
      "LNG": -73.97924754171456,
      "LAT": 40.710000049392484,
      "DISTANCE_TO_FACILITY": 1.4140743871179922
    },
    {
      "BOROUGH": "Manhattan",
      "NAME": "CORLEARS HOOK PARK",
      "FACILITY_T": "Recreational Facility",
      "FACILITY_DOMAIN_NAME": "Playground",
      "LNG": -73.97949574076085,
      "LAT": 40.711786128965265,
      "DISTANCE_TO_FACILITY": 1.1882694604003206
    },
    {
      "BOROUGH": "Manhattan",
      "NAME": "CORLEARS HOOK PARK OVERPASS",
      "FACILITY_T": "Transportation Facility",
      "FACILITY_DOMAIN_NAME": "Bridge",
      "LNG": -73.9794093038636,
      "LAT": 40.71114664104554,
      "DISTANCE_TO_FACILITY": 1.2688471150846539
    },
    {
      "BOROUGH": "Manhattan",
      "NAME": "DELANCEY ST PED BR OVER FDR DRV",
      "FACILITY_T": "Transportation Facility",
      "FACILITY_DOMAIN_NAME": "Bridge",
      "LNG": -73.97665468400376,
      "LAT": 40.71448522905897,
      "DISTANCE_TO_FACILITY": 1.2040266500359706
    },
    {
      "BOROUGH": "Manhattan",
      "NAME": "DORA COHEN MEMORIAL PARK",
      "FACILITY_T": "Recreational Facility",
      "FACILITY_DOMAIN_NAME": "Park",
      "LNG": -73.98697379953563,
      "LAT": 40.71461922301764,
      "DISTANCE_TO_FACILITY": 0.21285099349762504
    },
    {
      "BOROUGH": "Manhattan",
      "NAME": "DUAL LANGUAGE & ASIAN STUDIES HIGH SCHOOL",
      "FACILITY_T": "Education Facility",
      "FACILITY_DOMAIN_NAME": "Public High School",
      "LNG": -73.98958063483353,
      "LAT": 40.71710352215786,
      "DISTANCE_TO_FACILITY": 0.5213844260451594
    },
    {
      "BOROUGH": "Manhattan",
      "NAME": "EAST RIVER PARK AMPHITHEATER",
      "FACILITY_T": "Recreational Facility",
      "FACILITY_DOMAIN_NAME": "Park",
      "LNG": -73.97781379873683,
      "LAT": 40.71110983041802,
      "DISTANCE_TO_FACILITY": 1.4500341638111536
    },
    {
      "BOROUGH": "Manhattan",
      "NAME": "EAST RIVER PARK AT CHERRY STREET",
      "FACILITY_T": "Recreational Facility",
      "FACILITY_DOMAIN_NAME": "Park",
      "LNG": -73.97695839124198,
      "LAT": 40.71226391833321,
      "DISTANCE_TO_FACILITY": 1.4168806371538594
    },
    {
      "BOROUGH": "Manhattan",
      "NAME": "EAST RIVER PARK AT DELANCEY STREET",
      "FACILITY_T": "Recreational Facility",
      "FACILITY_DOMAIN_NAME": "Park",
      "LNG": -73.97541688308016,
      "LAT": 40.715434568094445,
      "DISTANCE_TO_FACILITY": 1.2360459196186753
    },
    {
      "BOROUGH": "Manhattan",
      "NAME": "EAST RIVER PARK AT JACKSON STREET",
      "FACILITY_T": "Recreational Facility",
      "FACILITY_DOMAIN_NAME": "Park",
      "LNG": -73.98022144289203,
      "LAT": 40.710563814582116,
      "DISTANCE_TO_FACILITY": 1.2433934203691948
    },
    {
      "BOROUGH": "Manhattan",
      "NAME": "ELDRIDGE STREET MUSEUM",
      "FACILITY_T": "Cultural Facility",
      "FACILITY_DOMAIN_NAME": "Museum",
      "LNG": -73.99347422923512,
      "LAT": 40.71474244945652,
      "DISTANCE_TO_FACILITY": 0.9207205554248148
    },
    {
      "BOROUGH": "Manhattan",
      "NAME": "EMMA LAZARUS HIGH SCHOOL",
      "FACILITY_T": "Education Facility",
      "FACILITY_DOMAIN_NAME": "Public High School",
      "LNG": -73.99347387579665,
      "LAT": 40.716332922369624,
      "DISTANCE_TO_FACILITY": 0.8679975964572009
    },
    {
      "BOROUGH": "Manhattan",
      "NAME": "EMS DIV 6",
      "FACILITY_T": "Public Safety",
      "FACILITY_DOMAIN_NAME": "FDNY Division",
      "LNG": -73.9860382853591,
      "LAT": 40.71013947910809,
      "DISTANCE_TO_FACILITY": 0.6448251441409596
    },
    {
      "BOROUGH": "Manhattan",
      "NAME": "ENGINE 9 LADDER 6",
      "FACILITY_T": "Public Safety",
      "FACILITY_DOMAIN_NAME": "FDNY Engine Company",
      "LNG": -73.9928632618287,
      "LAT": 40.7153516139324,
      "DISTANCE_TO_FACILITY": 0.7852859164904302
    },
    {
      "BOROUGH": "Manhattan",
      "NAME": "ESSEX STREET ACADEMY",
      "FACILITY_T": "Education Facility",
      "FACILITY_DOMAIN_NAME": "Public High School",
      "LNG": -73.9893900903499,
      "LAT": 40.71745153645424,
      "DISTANCE_TO_FACILITY": 0.5388635752602369
    },
    {
      "BOROUGH": "Manhattan",
      "NAME": "FDNY EMS DIVISION 1 HQ",
      "FACILITY_T": "Public Safety",
      "FACILITY_DOMAIN_NAME": "FDNY Division",
      "LNG": -73.98617830525686,
      "LAT": 40.71013702297132,
      "DISTANCE_TO_FACILITY": 0.6295555666722095
    },
    {
      "BOROUGH": "Manhattan",
      "NAME": "FDNY EMS STATION 4",
      "FACILITY_T": "Public Safety",
      "FACILITY_DOMAIN_NAME": "FDNY Other",
      "LNG": -73.98610340907668,
      "LAT": 40.71013838583307,
      "DISTANCE_TO_FACILITY": 0.6377177650177259
    },
    {
      "BOROUGH": "Manhattan",
      "NAME": "FORSYTH GARDEN CONSERVANCY",
      "FACILITY_T": "Recreational Facility",
      "FACILITY_DOMAIN_NAME": "Park",
      "LNG": -73.99273189770312,
      "LAT": 40.719463952387116,
      "DISTANCE_TO_FACILITY": 1.1331823600170807
    },
    {
      "BOROUGH": "Manhattan",
      "NAME": "FORSYTHE SATELLITE ACADEMY HIGH SCHOOL",
      "FACILITY_T": "Education Facility",
      "FACILITY_DOMAIN_NAME": "Public High School",
      "LNG": -73.99055854889303,
      "LAT": 40.72238884411097,
      "DISTANCE_TO_FACILITY": 1.1889883765564733
    },
    {
      "BOROUGH": "Manhattan",
      "NAME": "GREAT OAKS CHARTER SCHOOL",
      "FACILITY_T": "Education Facility",
      "FACILITY_DOMAIN_NAME": "Public High School",
      "LNG": -73.99164313892591,
      "LAT": 40.71993698711545,
      "DISTANCE_TO_FACILITY": 1.0648369905916724
    },
    {
      "BOROUGH": "Manhattan",
      "NAME": "HAMILTON FISH PARK",
      "FACILITY_T": "Recreational Facility",
      "FACILITY_DOMAIN_NAME": "Park",
      "LNG": -73.98084393192482,
      "LAT": 40.719815446204784,
      "DISTANCE_TO_FACILITY": 0.9764099149252772
    },
    {
      "BOROUGH": "Manhattan",
      "NAME": "HAMILTON FISH POOL",
      "FACILITY_T": "Recreational Facility",
      "FACILITY_DOMAIN_NAME": "Pool",
      "LNG": -73.98071352546471,
      "LAT": 40.71978380475314,
      "DISTANCE_TO_FACILITY": 0.9654469989846817
    },
    {
      "BOROUGH": "Manhattan",
      "NAME": "HAMILTON FISH RECREATION CENTER",
      "FACILITY_T": "Recreational Facility",
      "FACILITY_DOMAIN_NAME": "Recreational Center",
      "LNG": -73.98148117000402,
      "LAT": 40.71995620832063,
      "DISTANCE_TO_FACILITY": 0.9892362531436021
    },
    {
      "BOROUGH": "Manhattan",
      "NAME": "HENRY M JACKSON PLAYGROUND",
      "FACILITY_T": "Recreational Facility",
      "FACILITY_DOMAIN_NAME": "Playground",
      "LNG": -73.98153775712106,
      "LAT": 40.71398318428355,
      "DISTANCE_TO_FACILITY": 0.7177325040878415
    },
    {
      "BOROUGH": "Manhattan",
      "NAME": "HENRY STREET SETTLEMENT CCC MONTGOMERY ST",
      "FACILITY_T": "Health Services",
      "FACILITY_DOMAIN_NAME": "Outpatient care center/Clinic",
      "LNG": -73.98559986066111,
      "LAT": 40.712621854532614,
      "DISTANCE_TO_FACILITY": 0.417946613496035
    },
    {
      "BOROUGH": "Manhattan",
      "NAME": "HESTER STREET PLAYGROUND",
      "FACILITY_T": "Recreational Facility",
      "FACILITY_DOMAIN_NAME": "Playground",
      "LNG": -73.99373355025357,
      "LAT": 40.71745696454089,
      "DISTANCE_TO_FACILITY": 1.021590142184742
    },
    {
      "BOROUGH": "Manhattan",
      "NAME": "HOPE GARDEN",
      "FACILITY_T": "Recreational Facility",
      "FACILITY_DOMAIN_NAME": "Garden",
      "LNG": -73.98412644972821,
      "LAT": 40.722149559804144,
      "DISTANCE_TO_FACILITY": 0.9390722184282367
    },
    {
      "BOROUGH": "Manhattan",
      "NAME": "JOHN V LINDSAY PARK",
      "FACILITY_T": "Recreational Facility",
      "FACILITY_DOMAIN_NAME": "Park",
      "LNG": -73.97617265304112,
      "LAT": 40.713810146171596,
      "DISTANCE_TO_FACILITY": 1.3324662873882076
    },
    {
      "BOROUGH": "Manhattan",
      "NAME": "LAMBS CHURCH OF NAZARENE",
      "FACILITY_T": "Religious Institution",
      "FACILITY_DOMAIN_NAME": "Church",
      "LNG": -73.99033922962647,
      "LAT": 40.720526582932465,
      "DISTANCE_TO_FACILITY": 0.9855481940423729
    },
    {
      "BOROUGH": "Manhattan",
      "NAME": "LATIN AMER PENTECOSTAL CHURCH",
      "FACILITY_T": "Religious Institution",
      "FACILITY_DOMAIN_NAME": "Church",
      "LNG": -73.99340595765216,
      "LAT": 40.71691474688475,
      "DISTANCE_TO_FACILITY": 0.9250412035969191
    },
    {
      "BOROUGH": "Manhattan",
      "NAME": "LILLIAN D WALD PLAYGROUND",
      "FACILITY_T": "Recreational Facility",
      "FACILITY_DOMAIN_NAME": "Playground",
      "LNG": -73.9844333468833,
      "LAT": 40.712053997007494,
      "DISTANCE_TO_FACILITY": 0.6104618281205347
    },
    {
      "BOROUGH": "Manhattan",
      "NAME": "LITTLE FLOWER PLAYGROUND",
      "FACILITY_T": "Recreational Facility",
      "FACILITY_DOMAIN_NAME": "Playground",
      "LNG": -73.9882146433558,
      "LAT": 40.71251496631956,
      "DISTANCE_TO_FACILITY": 0.5841571510236818
    },
    {
      "BOROUGH": "Manhattan",
      "NAME": "LITTLE FLOWER PLAYGROUND BASKETBALL COURT",
      "FACILITY_T": "Recreational Facility",
      "FACILITY_DOMAIN_NAME": "Sports",
      "LNG": -73.9883546796016,
      "LAT": 40.712310941429664,
      "DISTANCE_TO_FACILITY": 0.6223479370855145
    },
    {
      "BOROUGH": "Manhattan",
      "NAME": "LITTLE FLOWER PLAYGROUND COMFORT STATION",
      "FACILITY_T": "Recreational Facility",
      "FACILITY_DOMAIN_NAME": "Other",
      "LNG": -73.98858714851252,
      "LAT": 40.712583477317935,
      "DISTANCE_TO_FACILITY": 0.617900502599845
    },
    {
      "BOROUGH": "Manhattan",
      "NAME": "LITTLE FLOWER PLAYGROUND HANDBALL COURTS",
      "FACILITY_T": "Recreational Facility",
      "FACILITY_DOMAIN_NAME": "Sports",
      "LNG": -73.98869660283788,
      "LAT": 40.712317646937265,
      "DISTANCE_TO_FACILITY": 0.6595571049685205
    },
    {
      "BOROUGH": "Manhattan",
      "NAME": "LOWER EAST SIDE ECOLOGY CENTER ENVIRONMENTAL LEARNING CENTER",
      "FACILITY_T": "Recreational Facility",
      "FACILITY_DOMAIN_NAME": "Park",
      "LNG": -73.97613235387186,
      "LAT": 40.71280976232516,
      "DISTANCE_TO_FACILITY": 1.447982102130382
    },
    {
      "BOROUGH": "Manhattan",
      "NAME": "LOWER EAST SIDE PREPARATORY HIGH SCHOOL",
      "FACILITY_T": "Education Facility",
      "FACILITY_DOMAIN_NAME": "Public High School",
      "LNG": -73.98594582103512,
      "LAT": 40.720510836099876,
      "DISTANCE_TO_FACILITY": 0.5552236721877009
    },
    {
      "BOROUGH": "Manhattan",
      "NAME": "LOWER EAST SIDE TENEMENT MUSEUM",
      "FACILITY_T": "Cultural Facility",
      "FACILITY_DOMAIN_NAME": "Museum",
      "LNG": -73.99005020480182,
      "LAT": 40.718766386451136,
      "DISTANCE_TO_FACILITY": 0.7580846290784748
    },
    {
      "BOROUGH": "Manhattan",
      "NAME": "LOWER MANHATTAN ARTS ACADEMY",
      "FACILITY_T": "Education Facility",
      "FACILITY_DOMAIN_NAME": "Public High School",
      "LNG": -73.98950684893437,
      "LAT": 40.71724485569553,
      "DISTANCE_TO_FACILITY": 0.5288822139195872
    },
    {
      "BOROUGH": "Manhattan",
      "NAME": "LUTHER GULICK PLAYGROUND",
      "FACILITY_T": "Recreational Facility",
      "FACILITY_DOMAIN_NAME": "Playground",
      "LNG": -73.9818459457272,
      "LAT": 40.7158524068524,
      "DISTANCE_TO_FACILITY": 0.4932241848962633
    },
    {
      "BOROUGH": "Manhattan",
      "NAME": "LUTOWISKER CHEVRA SYNAGOGUES",
      "FACILITY_T": "Religious Institution",
      "FACILITY_DOMAIN_NAME": "Synagogue",
      "LNG": -73.98065754949184,
      "LAT": 40.71671464174493,
      "DISTANCE_TO_FACILITY": 0.720844240092454
    },
    {
      "BOROUGH": "Manhattan",
      "NAME": "MANHATTAN",
      "FACILITY_T": "Transportation Facility",
      "FACILITY_DOMAIN_NAME": "Bridge",
      "LNG": -73.9919414213091,
      "LAT": 40.70960010711745,
      "DISTANCE_TO_FACILITY": 1.2146381247278981
    },
    {
      "BOROUGH": "Manhattan",
      "NAME": "MANHATTAN BRIDGE BIKE PATH",
      "FACILITY_T": "Transportation Facility",
      "FACILITY_DOMAIN_NAME": "Bridge",
      "LNG": -73.99174378896677,
      "LAT": 40.70964512806461,
      "DISTANCE_TO_FACILITY": 1.2415726398597258
    },
    {
      "BOROUGH": "Manhattan",
      "NAME": "MANHATTAN BRIDGE EASTBOUND RB",
      "FACILITY_T": "Transportation Facility",
      "FACILITY_DOMAIN_NAME": "Bridge",
      "LNG": -73.99187498582822,
      "LAT": 40.70923323197209,
      "DISTANCE_TO_FACILITY": 1.1912278241649688
    },
    {
      "BOROUGH": "Manhattan",
      "NAME": "MANHATTAN BRIDGE LOWER LEVEL",
      "FACILITY_T": "Transportation Facility",
      "FACILITY_DOMAIN_NAME": "Bridge",
      "LNG": -73.99020718991814,
      "LAT": 40.70666003999598,
      "DISTANCE_TO_FACILITY": 1.4552266413600776
    },
    {
      "BOROUGH": "Manhattan",
      "NAME": "MANHATTAN BRIDGE PEDESTRIAN",
      "FACILITY_T": "Transportation Facility",
      "FACILITY_DOMAIN_NAME": "Bridge",
      "LNG": -73.99214581403187,
      "LAT": 40.70959990882026,
      "DISTANCE_TO_FACILITY": 1.1919285215109383
    },
    {
      "BOROUGH": "Manhattan",
      "NAME": "MANHATTAN BRIDGE UPPER LEVEL",
      "FACILITY_T": "Transportation Facility",
      "FACILITY_DOMAIN_NAME": "Bridge",
      "LNG": -73.99015938948921,
      "LAT": 40.706362050102875,
      "DISTANCE_TO_FACILITY": 1.4592547947205787
    },
    {
      "BOROUGH": "Manhattan",
      "NAME": "MANHATTAN BRIDGE WB ROADBED",
      "FACILITY_T": "Transportation Facility",
      "FACILITY_DOMAIN_NAME": "Bridge",
      "LNG": -73.99160413324513,
      "LAT": 40.709263801298434,
      "DISTANCE_TO_FACILITY": 1.2178992656635614
    },
    {
      "BOROUGH": "Manhattan",
      "NAME": "MANHATTAN CHARTER SCHOOL",
      "FACILITY_T": "Education Facility",
      "FACILITY_DOMAIN_NAME": "Public Elementary School",
      "LNG": -73.98417107143901,
      "LAT": 40.71838769640876,
      "DISTANCE_TO_FACILITY": 0.5165523716420495
    },
    {
      "BOROUGH": "Manhattan",
      "NAME": "MANHATTAN CHARTER SCHOOL II",
      "FACILITY_T": "Education Facility",
      "FACILITY_DOMAIN_NAME": "Public Elementary School",
      "LNG": -73.98606196323051,
      "LAT": 40.713478671751396,
      "DISTANCE_TO_FACILITY": 0.27154651700773513
    },
    {
      "BOROUGH": "Manhattan",
      "NAME": "MASARYK BASKETBALL GYM",
      "FACILITY_T": "Recreational Facility",
      "FACILITY_DOMAIN_NAME": "Sports",
      "LNG": -73.98042946253881,
      "LAT": 40.71753134443599,
      "DISTANCE_TO_FACILITY": 0.8368158905865357
    },
    {
      "BOROUGH": "Manhattan",
      "NAME": "MESIVTHA TIFERETH JERUSALEM SCHOOL",
      "FACILITY_T": "Education Facility",
      "FACILITY_DOMAIN_NAME": "Private/Parochial Elementary School",
      "LNG": -73.99113322788303,
      "LAT": 40.71382712851503,
      "DISTANCE_TO_FACILITY": 0.7624700298484015
    },
    {
      "BOROUGH": "Manhattan",
      "NAME": "MS 131",
      "FACILITY_T": "Education Facility",
      "FACILITY_DOMAIN_NAME": "Public Junior High-Intermediate-Middle",
      "LNG": -73.99366920612633,
      "LAT": 40.716381028067055,
      "DISTANCE_TO_FACILITY": 0.8950189954658896
    },
    {
      "BOROUGH": "Manhattan",
      "NAME": "MURRAY BERGTRAUM HIGH SCHOOL ATHLETIC FIELD",
      "FACILITY_T": "Recreational Facility",
      "FACILITY_DOMAIN_NAME": "Sports",
      "LNG": -73.9932922919992,
      "LAT": 40.70999381694197,
      "DISTANCE_TO_FACILITY": 1.108393268647525
    },
    {
      "BOROUGH": "Manhattan",
      "NAME": "NATHAN STRAUS PLAYGROUND",
      "FACILITY_T": "Recreational Facility",
      "FACILITY_DOMAIN_NAME": "Playground",
      "LNG": -73.98411296258313,
      "LAT": 40.719493294439374,
      "DISTANCE_TO_FACILITY": 0.6457238360429116
    },
    {
      "BOROUGH": "Manhattan",
      "NAME": "NEW DESIGN HIGH SCHOOL",
      "FACILITY_T": "Education Facility",
      "FACILITY_DOMAIN_NAME": "Public High School",
      "LNG": -73.98954342822955,
      "LAT": 40.71717802418077,
      "DISTANCE_TO_FACILITY": 0.5255242175460992
    },
    {
      "BOROUGH": "Manhattan",
      "NAME": "NYC HEALTH + HOSPITALS GOUVERNEUR",
      "FACILITY_T": "Health Services",
      "FACILITY_DOMAIN_NAME": "Hospital",
      "LNG": -73.98805763945884,
      "LAT": 40.71304943536974,
      "DISTANCE_TO_FACILITY": 0.5074036538912523
    },
    {
      "BOROUGH": "Manhattan",
      "NAME": "ORCHARD COLLEGIATE ACADEMY",
      "FACILITY_T": "Education Facility",
      "FACILITY_DOMAIN_NAME": "Public High School",
      "LNG": -73.98621605888253,
      "LAT": 40.71347309322973,
      "DISTANCE_TO_FACILITY": 0.25596218746180455
    },
    {
      "BOROUGH": "Manhattan",
      "NAME": "OUR LADY OF SORROWS CHURCH",
      "FACILITY_T": "Religious Institution",
      "FACILITY_DOMAIN_NAME": "Church",
      "LNG": -73.98236060976114,
      "LAT": 40.7191029690081,
      "DISTANCE_TO_FACILITY": 0.7969088764111802
    },
    {
      "BOROUGH": "Manhattan",
      "NAME": "PACE HIGH SCHOOL",
      "FACILITY_T": "Education Facility",
      "FACILITY_DOMAIN_NAME": "Public High School",
      "LNG": -73.99356659936963,
      "LAT": 40.716355448897616,
      "DISTANCE_TO_FACILITY": 0.8807903576647007
    },
    {
      "BOROUGH": "Manhattan",
      "NAME": "PIER 35",
      "FACILITY_T": "Transportation Facility",
      "FACILITY_DOMAIN_NAME": "Pier",
      "LNG": -73.98841081890447,
      "LAT": 40.709574532015765,
      "DISTANCE_TO_FACILITY": 0.9323208446469025
    },
    {
      "BOROUGH": "Manhattan",
      "NAME": "PIER 36",
      "FACILITY_T": "Transportation Facility",
      "FACILITY_DOMAIN_NAME": "Pier",
      "LNG": -73.98700160906519,
      "LAT": 40.70957367555795,
      "DISTANCE_TO_FACILITY": 0.7759936193043799
    },
    {
      "BOROUGH": "Manhattan",
      "NAME": "PIER 36 EMS BUILDING",
      "FACILITY_T": "Public Safety",
      "FACILITY_DOMAIN_NAME": "FDNY Other",
      "LNG": -73.98627272006131,
      "LAT": 40.71006933911139,
      "DISTANCE_TO_FACILITY": 0.6400682854413162
    },
    {
      "BOROUGH": "Manhattan",
      "NAME": "PIER 42",
      "FACILITY_T": "Transportation Facility",
      "FACILITY_DOMAIN_NAME": "Pier",
      "LNG": -73.98278278652985,
      "LAT": 40.70994254226416,
      "DISTANCE_TO_FACILITY": 1.0280455038641847
    },
    {
      "BOROUGH": "Manhattan",
      "NAME": "PRIMITIVE CHRISTIAN CHURCH",
      "FACILITY_T": "Religious Institution",
      "FACILITY_DOMAIN_NAME": "Church",
      "LNG": -73.98779062611027,
      "LAT": 40.714093844561816,
      "DISTANCE_TO_FACILITY": 0.36183575187882155
    },
    {
      "BOROUGH": "Manhattan",
      "NAME": "PS 110 FLORENCE NIGHTINGALE",
      "FACILITY_T": "Education Facility",
      "FACILITY_DOMAIN_NAME": "Public Elementary School",
      "LNG": -73.98000449585989,
      "LAT": 40.715425574061996,
      "DISTANCE_TO_FACILITY": 0.7278192386704418
    },
    {
      "BOROUGH": "Manhattan",
      "NAME": "PS 134 HENRIETTA SZOLD",
      "FACILITY_T": "Education Facility",
      "FACILITY_DOMAIN_NAME": "Public Elementary School",
      "LNG": -73.98311883120631,
      "LAT": 40.714416972452156,
      "DISTANCE_TO_FACILITY": 0.49408279390954846
    },
    {
      "BOROUGH": "Manhattan",
      "NAME": "PS 140 NATHAN STRAUS",
      "FACILITY_T": "Education Facility",
      "FACILITY_DOMAIN_NAME": "Public K-8",
      "LNG": -73.98340526857406,
      "LAT": 40.7191341663734,
      "DISTANCE_TO_FACILITY": 0.6844146557261439
    },
    {
      "BOROUGH": "Manhattan",
      "NAME": "PS 142 AMALIA CASTRO",
      "FACILITY_T": "Education Facility",
      "FACILITY_DOMAIN_NAME": "Public Elementary School",
      "LNG": -73.98399233801646,
      "LAT": 40.71844677667316,
      "DISTANCE_TO_FACILITY": 0.5429496908928186
    },
    {
      "BOROUGH": "Manhattan",
      "NAME": "PS 184 SHUANG WEN SCHOOL",
      "FACILITY_T": "Education Facility",
      "FACILITY_DOMAIN_NAME": "Public High School",
      "LNG": -73.98584123370358,
      "LAT": 40.71141163923328,
      "DISTANCE_TO_FACILITY": 0.5254881040075077
    },
    {
      "BOROUGH": "Manhattan",
      "NAME": "PS 2 MEYER LONDON",
      "FACILITY_T": "Education Facility",
      "FACILITY_DOMAIN_NAME": "Public Elementary School",
      "LNG": -73.99136455909661,
      "LAT": 40.71310730659164,
      "DISTANCE_TO_FACILITY": 0.868048028052506
    },
    {
      "BOROUGH": "Manhattan",
      "NAME": "PS 20 ANNA SILVER",
      "FACILITY_T": "Education Facility",
      "FACILITY_DOMAIN_NAME": "Public Elementary School",
      "LNG": -73.98639367151328,
      "LAT": 40.721325237924376,
      "DISTANCE_TO_FACILITY": 0.6362419475806789
    },
    {
      "BOROUGH": "Manhattan",
      "NAME": "PS 42 BENJAMIN ALTMAN",
      "FACILITY_T": "Education Facility",
      "FACILITY_DOMAIN_NAME": "Public Elementary School",
      "LNG": -73.99081604588854,
      "LAT": 40.716062774629094,
      "DISTANCE_TO_FACILITY": 0.5429920774574768
    },
    {
      "BOROUGH": "Manhattan",
      "NAME": "RUTGERS PARK",
      "FACILITY_T": "Recreational Facility",
      "FACILITY_DOMAIN_NAME": "Park",
      "LNG": -73.98967673893982,
      "LAT": 40.71067537272158,
      "DISTANCE_TO_FACILITY": 0.9506446502251791
    },
    {
      "BOROUGH": "Manhattan",
      "NAME": "RUTGERS TUBE",
      "FACILITY_T": "Transportation Facility",
      "FACILITY_DOMAIN_NAME": "Tunnel",
      "LNG": -73.98841058980138,
      "LAT": 40.70834838544258,
      "DISTANCE_TO_FACILITY": 1.0683976838273779
    },
    {
      "BOROUGH": "Manhattan",
      "NAME": "SATELLITE 1 FDNY",
      "FACILITY_T": "Public Safety",
      "FACILITY_DOMAIN_NAME": "FDNY Other",
      "LNG": -73.99284189791622,
      "LAT": 40.715345964938955,
      "DISTANCE_TO_FACILITY": 0.7835415604773033
    },
    {
      "BOROUGH": "Manhattan",
      "NAME": "SCHIFF MALLS",
      "FACILITY_T": "Recreational Facility",
      "FACILITY_DOMAIN_NAME": "Park",
      "LNG": -73.99063863213837,
      "LAT": 40.71930454971796,
      "DISTANCE_TO_FACILITY": 0.8831361860533278
    },
    {
      "BOROUGH": "Manhattan",
      "NAME": "SCHOOL FOR GLOBAL LEADERS",
      "FACILITY_T": "Education Facility",
      "FACILITY_DOMAIN_NAME": "Public High School",
      "LNG": -73.985723503418,
      "LAT": 40.720451545474,
      "DISTANCE_TO_FACILITY": 0.5733196682151487
    },
    {
      "BOROUGH": "Manhattan",
      "NAME": "SEWARD PARK",
      "FACILITY_T": "Recreational Facility",
      "FACILITY_DOMAIN_NAME": "Park",
      "LNG": -73.98922815814126,
      "LAT": 40.71479012809859,
      "DISTANCE_TO_FACILITY": 0.44411433473669604
    },
    {
      "BOROUGH": "Manhattan",
      "NAME": "SEWARD PARK EDUCATIONAL CAMPUS",
      "FACILITY_T": "Education Facility",
      "FACILITY_DOMAIN_NAME": "Public School Building",
      "LNG": -73.98922860719802,
      "LAT": 40.71730156917028,
      "DISTANCE_TO_FACILITY": 0.5042925768814399
    },
    {
      "BOROUGH": "Manhattan",
      "NAME": "SEWARD PARK LIBRARY",
      "FACILITY_T": "Cultural Facility",
      "FACILITY_DOMAIN_NAME": "Library",
      "LNG": -73.98847534512143,
      "LAT": 40.71439096351296,
      "DISTANCE_TO_FACILITY": 0.40485935854057686
    },
    {
      "BOROUGH": "Manhattan",
      "NAME": "SEWARD PARK PLAYGROUND ESSEX ST",
      "FACILITY_T": "Recreational Facility",
      "FACILITY_DOMAIN_NAME": "Playground",
      "LNG": -73.98957944176733,
      "LAT": 40.714489323625045,
      "DISTANCE_TO_FACILITY": 0.5164961137945809
    },
    {
      "BOROUGH": "Manhattan",
      "NAME": "SIDNEY HILLMAN PLAYGROUND",
      "FACILITY_T": "Recreational Facility",
      "FACILITY_DOMAIN_NAME": "Playground",
      "LNG": -73.97965909284771,
      "LAT": 40.71519261345198,
      "DISTANCE_TO_FACILITY": 0.7920176007334447
    },
    {
      "BOROUGH": "Manhattan",
      "NAME": "SIEMPRE VERDE GARDEN",
      "FACILITY_T": "Recreational Facility",
      "FACILITY_DOMAIN_NAME": "Garden",
      "LNG": -73.98400645819416,
      "LAT": 40.71995634926203,
      "DISTANCE_TO_FACILITY": 0.7089449085327004
    },
    {
      "BOROUGH": "Manhattan",
      "NAME": "SOL LAIN PLAYGROUND",
      "FACILITY_T": "Recreational Facility",
      "FACILITY_DOMAIN_NAME": "Playground",
      "LNG": -73.98390952716827,
      "LAT": 40.7142733760547,
      "DISTANCE_TO_FACILITY": 0.4222547422504874
    },
    {
      "BOROUGH": "Manhattan",
      "NAME": "SOPHIE IRENE LOEB PLAYGROUND",
      "FACILITY_T": "Recreational Facility",
      "FACILITY_DOMAIN_NAME": "Playground",
      "LNG": -73.99431519781425,
      "LAT": 40.713316451674885,
      "DISTANCE_TO_FACILITY": 1.1723538214696632
    },
    {
      "BOROUGH": "Manhattan",
      "NAME": "ST AUGUSTINES EPISCOPAL CHURCH",
      "FACILITY_T": "Religious Institution",
      "FACILITY_DOMAIN_NAME": "Church",
      "LNG": -73.98318774561264,
      "LAT": 40.713823152319215,
      "DISTANCE_TO_FACILITY": 0.552347329563716
    },
    {
      "BOROUGH": "Manhattan",
      "NAME": "ST BARBARA GREEK ORTHO CHURCH",
      "FACILITY_T": "Religious Institution",
      "FACILITY_DOMAIN_NAME": "Church",
      "LNG": -73.9943078493393,
      "LAT": 40.71512427831837,
      "DISTANCE_TO_FACILITY": 0.9708693833230839
    },
    {
      "BOROUGH": "Manhattan",
      "NAME": "ST MARYS RC CHURCH",
      "FACILITY_T": "Religious Institution",
      "FACILITY_DOMAIN_NAME": "Church",
      "LNG": -73.98515353557772,
      "LAT": 40.71571384883138,
      "DISTANCE_TO_FACILITY": 0.12427733058932233
    },
    {
      "BOROUGH": "Manhattan",
      "NAME": "ST TERESA CHURCH",
      "FACILITY_T": "Religious Institution",
      "FACILITY_DOMAIN_NAME": "Church",
      "LNG": -73.99040029774783,
      "LAT": 40.71354483909908,
      "DISTANCE_TO_FACILITY": 0.7124489100115596
    },
    {
      "BOROUGH": "Manhattan",
      "NAME": "THE LIONS PLAYGROUND",
      "FACILITY_T": "Recreational Facility",
      "FACILITY_DOMAIN_NAME": "Playground",
      "LNG": -73.99347056668586,
      "LAT": 40.7182601632727,
      "DISTANCE_TO_FACILITY": 1.0815540254007132
    },
    {
      "BOROUGH": "Manhattan",
      "NAME": "TRANSIT HOMELESS OUTREACH UNIT",
      "FACILITY_T": "Public Safety",
      "FACILITY_DOMAIN_NAME": "NYPD Other",
      "LNG": -73.98016163634752,
      "LAT": 40.71336383273007,
      "DISTANCE_TO_FACILITY": 0.939229932387569
    },
    {
      "BOROUGH": "Manhattan",
      "NAME": "TRINITY ASSEMBLY OF GOD CHURCH",
      "FACILITY_T": "Religious Institution",
      "FACILITY_DOMAIN_NAME": "Church",
      "LNG": -73.99064788055519,
      "LAT": 40.713198816479164,
      "DISTANCE_TO_FACILITY": 0.7783391124392622
    },
    {
      "BOROUGH": "Manhattan",
      "NAME": "UNIVERSITY NEIGHBORHOOD HIGH SCHOOL",
      "FACILITY_T": "Education Facility",
      "FACILITY_DOMAIN_NAME": "Public High School",
      "LNG": -73.98405451186709,
      "LAT": 40.71235085707376,
      "DISTANCE_TO_FACILITY": 0.6195610475657602
    },
    {
      "BOROUGH": "Manhattan",
      "NAME": "UNIVERSITY NEIGHBORHOOD MIDDLE SCHOOL",
      "FACILITY_T": "Education Facility",
      "FACILITY_DOMAIN_NAME": "Public Junior High-Intermediate-Middle",
      "LNG": -73.98634288767198,
      "LAT": 40.71346791367002,
      "DISTANCE_TO_FACILITY": 0.2706151142180033
    },
    {
      "BOROUGH": "Manhattan",
      "NAME": "URBAN ASSEMBLY ACADEMY OF GOVERNMENT & LAW",
      "FACILITY_T": "Education Facility",
      "FACILITY_DOMAIN_NAME": "Public High School",
      "LNG": -73.98944919487137,
      "LAT": 40.71734064982558,
      "DISTANCE_TO_FACILITY": 0.5331157613618842
    },
    {
      "BOROUGH": "Manhattan",
      "NAME": "VLADECK PARK",
      "FACILITY_T": "Recreational Facility",
      "FACILITY_DOMAIN_NAME": "Park",
      "LNG": -73.9820286874786,
      "LAT": 40.712439371395654,
      "DISTANCE_TO_FACILITY": 0.8346024649569586
    },
    {
      "BOROUGH": "Manhattan",
      "NAME": "WILLIAMSBURG",
      "FACILITY_T": "Transportation Facility",
      "FACILITY_DOMAIN_NAME": "Bridge",
      "LNG": -73.97581238008704,
      "LAT": 40.714701275978264,
      "DISTANCE_TO_FACILITY": 1.2735411767512943
    },
    {
      "BOROUGH": "Manhattan",
      "NAME": "WILLIAMSBURG BR BIKE AND PED",
      "FACILITY_T": "Transportation Facility",
      "FACILITY_DOMAIN_NAME": "Bridge",
      "LNG": -73.97583036119002,
      "LAT": 40.71466267350947,
      "DISTANCE_TO_FACILITY": 1.275830148355766
    },
    {
      "BOROUGH": "Manhattan",
      "NAME": "WILLIAMSBURG BRIDGE EB RB",
      "FACILITY_T": "Transportation Facility",
      "FACILITY_DOMAIN_NAME": "Bridge",
      "LNG": -73.97593234875725,
      "LAT": 40.71464715893155,
      "DISTANCE_TO_FACILITY": 1.2662316465424084
    },
    {
      "BOROUGH": "Manhattan",
      "NAME": "WILLIAMSBURG BRIDGE WB RB",
      "FACILITY_T": "Transportation Facility",
      "FACILITY_DOMAIN_NAME": "Bridge",
      "LNG": -73.97582595084587,
      "LAT": 40.71477840772272,
      "DISTANCE_TO_FACILITY": 1.2634731988857695
    },
    {
      "BOROUGH": "Manhattan",
      "NAME": "YMCA CHINATOWN CORNERSTONE 2 BRIDGES OMMUNITY CENTER",
      "FACILITY_T": "Cultural Facility",
      "FACILITY_DOMAIN_NAME": "Other",
      "LNG": -73.98617579653873,
      "LAT": 40.71075090531869,
      "DISTANCE_TO_FACILITY": 0.561693093825717
    },
    {
      "BOROUGH": "Manhattan",
      "NAME": "YMCA CHINATOWN HESTER STREET CENTER",
      "FACILITY_T": "Cultural Facility",
      "FACILITY_DOMAIN_NAME": "Other",
      "LNG": -73.99333423093209,
      "LAT": 40.71620056260074,
      "DISTANCE_TO_FACILITY": 0.8378050821448539
    }
  ],
  "10003": [
    {
      "BOROUGH": "Manhattan",
      "NAME": "14 STREET Y",
      "FACILITY_T": "Cultural Facility",
      "FACILITY_DOMAIN_NAME": "Other",
      "LNG": -73.98332039267838,
      "LAT": 40.73136782297849,
      "DISTANCE_TO_FACILITY": 0.7017180620873091
    },
    {
      "BOROUGH": "Manhattan",
      "NAME": "80 ST MARKS THEATRE",
      "FACILITY_T": "Cultural Facility",
      "FACILITY_DOMAIN_NAME": "Theater/Concert Hall",
      "LNG": -73.9857724421391,
      "LAT": 40.72759644453964,
      "DISTANCE_TO_FACILITY": 0.8481635786601984
    },
    {
      "BOROUGH": "Manhattan",
      "NAME": "9 PRECINCT",
      "FACILITY_T": "Public Safety",
      "FACILITY_DOMAIN_NAME": "NYPD Precinct",
      "LNG": -73.98785123455066,
      "LAT": 40.72650648239737,
      "DISTANCE_TO_FACILITY": 0.7384034187686908
    },
    {
      "BOROUGH": "Manhattan",
      "NAME": "ABE LEBEWOHL PARK",
      "FACILITY_T": "Recreational Facility",
      "FACILITY_DOMAIN_NAME": "Park",
      "LNG": -73.98698289405563,
      "LAT": 40.72999738067184,
      "DISTANCE_TO_FACILITY": 0.447299505250939
    },
    {
      "BOROUGH": "Manhattan",
      "NAME": "ACADEMY FOR SOFTWARE ENGINEERING",
      "FACILITY_T": "Education Facility",
      "FACILITY_DOMAIN_NAME": "Public High School",
      "LNG": -73.9874238515417,
      "LAT": 40.735392065019326,
      "DISTANCE_TO_FACILITY": 0.5905436960162902
    },
    {
      "BOROUGH": "Manhattan",
      "NAME": "ALL SAINTS UKRANIAN ORTHO CHURCH",
      "FACILITY_T": "Religious Institution",
      "FACILITY_DOMAIN_NAME": "Church",
      "LNG": -73.98809513991212,
      "LAT": 40.730925693358685,
      "DISTANCE_TO_FACILITY": 0.22079750694073397
    },
    {
      "BOROUGH": "Manhattan",
      "NAME": "AMC 19 ST EAST THEATER",
      "FACILITY_T": "Cultural Facility",
      "FACILITY_DOMAIN_NAME": "Theater/Concert Hall",
      "LNG": -73.98973105553053,
      "LAT": 40.7385575312211,
      "DISTANCE_TO_FACILITY": 0.8079231294303213
    },
    {
      "BOROUGH": "Manhattan",
      "NAME": "AMC THEATRE VILLAGE",
      "FACILITY_T": "Cultural Facility",
      "FACILITY_DOMAIN_NAME": "Theater/Concert Hall",
      "LNG": -73.98872527356934,
      "LAT": 40.73163015296773,
      "DISTANCE_TO_FACILITY": 0.07265765438458516
    },
    {
      "BOROUGH": "Manhattan",
      "NAME": "AMERICAN MIME THEATRE",
      "FACILITY_T": "Cultural Facility",
      "FACILITY_DOMAIN_NAME": "Theater/Concert Hall",
      "LNG": -73.99024220355759,
      "LAT": 40.73075726844532,
      "DISTANCE_TO_FACILITY": 0.2367557974605745
    },
    {
      "BOROUGH": "Manhattan",
      "NAME": "ANTHOLOGY FILM ARCHIVES",
      "FACILITY_T": "Cultural Facility",
      "FACILITY_DOMAIN_NAME": "Center",
      "LNG": -73.99021546877141,
      "LAT": 40.724702972819394,
      "DISTANCE_TO_FACILITY": 0.9058150506733398
    },
    {
      "BOROUGH": "Manhattan",
      "NAME": "ASTOR PL THEATRE",
      "FACILITY_T": "Cultural Facility",
      "FACILITY_DOMAIN_NAME": "Theater/Concert Hall",
      "LNG": -73.99221111778948,
      "LAT": 40.729303192807635,
      "DISTANCE_TO_FACILITY": 0.6167076729844112
    },
    {
      "BOROUGH": "Manhattan",
      "NAME": "BALLET TECH NYC PUBLIC SCHOOL FOR DANCE",
      "FACILITY_T": "Education Facility",
      "FACILITY_DOMAIN_NAME": "Public K-12 all grades",
      "LNG": -73.98967301743006,
      "LAT": 40.73868656271892,
      "DISTANCE_TO_FACILITY": 0.8158033965370777
    },
    {
      "BOROUGH": "Manhattan",
      "NAME": "BATTALION 6 LADDER 3",
      "FACILITY_T": "Public Safety",
      "FACILITY_DOMAIN_NAME": "FDNY Battalion",
      "LNG": -73.98941679041147,
      "LAT": 40.73315803851435,
      "DISTANCE_TO_FACILITY": 0.17369601076548946
    },
    {
      "BOROUGH": "Manhattan",
      "NAME": "BETH ISRAEL MEDICAL CENTER PHILLIPS AMBULATORY CARE CENTER",
      "FACILITY_T": "Health Services",
      "FACILITY_DOMAIN_NAME": "Hospital",
      "LNG": -73.98959005951185,
      "LAT": 40.73480363696429,
      "DISTANCE_TO_FACILITY": 0.3755903088517627
    },
    {
      "BOROUGH": "Manhattan",
      "NAME": "BIJOU CINEMA",
      "FACILITY_T": "Cultural Facility",
      "FACILITY_DOMAIN_NAME": "Other",
      "LNG": -73.98994961345383,
      "LAT": 40.726187857488426,
      "DISTANCE_TO_FACILITY": 0.7114829121594184
    },
    {
      "BOROUGH": "Manhattan",
      "NAME": "BROKENBUILDERS UNITED METHODIST CHURCH",
      "FACILITY_T": "Religious Institution",
      "FACILITY_DOMAIN_NAME": "Church",
      "LNG": -73.9870205067173,
      "LAT": 40.728138334897096,
      "DISTANCE_TO_FACILITY": 0.6494785808019472
    },
    {
      "BOROUGH": "Manhattan",
      "NAME": "CENTER FOR JEWISH HISTORY",
      "FACILITY_T": "Cultural Facility",
      "FACILITY_DOMAIN_NAME": "Center",
      "LNG": -73.99384464768073,
      "LAT": 40.738012485638556,
      "DISTANCE_TO_FACILITY": 1.1990072015586293
    },
    {
      "BOROUGH": "Manhattan",
      "NAME": "CHRIST LUTHERAN CHURCH",
      "FACILITY_T": "Religious Institution",
      "FACILITY_DOMAIN_NAME": "Church",
      "LNG": -73.98792941014003,
      "LAT": 40.73466166271402,
      "DISTANCE_TO_FACILITY": 0.4533520357135714
    },
    {
      "BOROUGH": "Manhattan",
      "NAME": "CINEMA VILLAGE THEATRE",
      "FACILITY_T": "Cultural Facility",
      "FACILITY_DOMAIN_NAME": "Theater/Concert Hall",
      "LNG": -73.99338463942682,
      "LAT": 40.734021114172606,
      "DISTANCE_TO_FACILITY": 0.7099286495364723
    },
    {
      "BOROUGH": "Manhattan",
      "NAME": "CITYVINE CHURCH",
      "FACILITY_T": "Religious Institution",
      "FACILITY_DOMAIN_NAME": "Church",
      "LNG": -73.98998389252019,
      "LAT": 40.728915095358865,
      "DISTANCE_TO_FACILITY": 0.41256448490621267
    },
    {
      "BOROUGH": "Manhattan",
      "NAME": "COLLEGIATE REFORMED 7 ST CHURCH",
      "FACILITY_T": "Religious Institution",
      "FACILITY_DOMAIN_NAME": "Church",
      "LNG": -73.98767177343102,
      "LAT": 40.727554177465485,
      "DISTANCE_TO_FACILITY": 0.6420294504881241
    },
    {
      "BOROUGH": "Manhattan",
      "NAME": "CONSERVATIVE SYNAGOGUE 5",
      "FACILITY_T": "Religious Institution",
      "FACILITY_DOMAIN_NAME": "Synagogue",
      "LNG": -73.99426891094562,
      "LAT": 40.7340540537252,
      "DISTANCE_TO_FACILITY": 0.81173907846145
    },
    {
      "BOROUGH": "Manhattan",
      "NAME": "COOPER UNION",
      "FACILITY_T": "Education Facility",
      "FACILITY_DOMAIN_NAME": "Post Secondary Degree Granting Institution",
      "LNG": -73.99162413668073,
      "LAT": 40.72813969676412,
      "DISTANCE_TO_FACILITY": 0.6807008307431985
    },
    {
      "BOROUGH": "Manhattan",
      "NAME": "COOPER UNION 41 COOPER SQUARE",
      "FACILITY_T": "Education Facility",
      "FACILITY_DOMAIN_NAME": "Post Secondary Degree Granting Institution",
      "LNG": -73.99030843515243,
      "LAT": 40.728508287788024,
      "DISTANCE_TO_FACILITY": 0.49374435744837797
    },
    {
      "BOROUGH": "Manhattan",
      "NAME": "COOPER UNION ADMINISTRATIVE OFFICES",
      "FACILITY_T": "Education Facility",
      "FACILITY_DOMAIN_NAME": "Post Secondary Degree Granting Institution",
      "LNG": -73.99155451408414,
      "LAT": 40.72808548056761,
      "DISTANCE_TO_FACILITY": 0.6789907203349941
    },
    {
      "BOROUGH": "Manhattan",
      "NAME": "COOPER UNION FOUNDATION BUILDING",
      "FACILITY_T": "Education Facility",
      "FACILITY_DOMAIN_NAME": "Post Secondary Degree Granting Institution",
      "LNG": -73.99059043607724,
      "LAT": 40.729216886883066,
      "DISTANCE_TO_FACILITY": 0.44639196055296537
    },
    {
      "BOROUGH": "Manhattan",
      "NAME": "COOPER UNION RESIDENCE HALL",
      "FACILITY_T": "Education Facility",
      "FACILITY_DOMAIN_NAME": "Post Secondary Degree Granting Institution",
      "LNG": -73.98947339119869,
      "LAT": 40.72971086596121,
      "DISTANCE_TO_FACILITY": 0.26756830135943943
    },
    {
      "BOROUGH": "Manhattan",
      "NAME": "COOPER UNION STUYVESANT FISH HOUSE",
      "FACILITY_T": "Education Facility",
      "FACILITY_DOMAIN_NAME": "Post Secondary Degree Granting Institution",
      "LNG": -73.98854513095233,
      "LAT": 40.73006087256063,
      "DISTANCE_TO_FACILITY": 0.26684361006140733
    },
    {
      "BOROUGH": "Manhattan",
      "NAME": "ENGINE 14",
      "FACILITY_T": "Public Safety",
      "FACILITY_DOMAIN_NAME": "FDNY Engine Company",
      "LNG": -73.99097331647174,
      "LAT": 40.7379998500014,
      "DISTANCE_TO_FACILITY": 0.8839114785184776
    },
    {
      "BOROUGH": "Manhattan",
      "NAME": "ENGINE 5",
      "FACILITY_T": "Public Safety",
      "FACILITY_DOMAIN_NAME": "FDNY Engine Company",
      "LNG": -73.98342877413542,
      "LAT": 40.73147857802775,
      "DISTANCE_TO_FACILITY": 0.6773939098885009
    },
    {
      "BOROUGH": "Manhattan",
      "NAME": "EPISCOPAL ASCENSION CHURCH",
      "FACILITY_T": "Religious Institution",
      "FACILITY_DOMAIN_NAME": "Church",
      "LNG": -73.99571725892383,
      "LAT": 40.73373850886408,
      "DISTANCE_TO_FACILITY": 0.9374802244581772
    },
    {
      "BOROUGH": "Manhattan",
      "NAME": "FIRST PARK",
      "FACILITY_T": "Recreational Facility",
      "FACILITY_DOMAIN_NAME": "Playground",
      "LNG": -73.9895807592122,
      "LAT": 40.723497979093004,
      "DISTANCE_TO_FACILITY": 0.9691165932305381
    },
    {
      "BOROUGH": "Manhattan",
      "NAME": "FIRST PRESBYTERIAN CHURCH",
      "FACILITY_T": "Religious Institution",
      "FACILITY_DOMAIN_NAME": "Church",
      "LNG": -73.99516513579978,
      "LAT": 40.73450008482849,
      "DISTANCE_TO_FACILITY": 0.9607294897380143
    },
    {
      "BOROUGH": "Manhattan",
      "NAME": "FIRST STREET GARDEN",
      "FACILITY_T": "Recreational Facility",
      "FACILITY_DOMAIN_NAME": "Garden",
      "LNG": -73.9896274180087,
      "LAT": 40.72396519924097,
      "DISTANCE_TO_FACILITY": 0.9224342832167451
    },
    {
      "BOROUGH": "Manhattan",
      "NAME": "FIRST UKRAINIAN ASSEMBLY OF GOD CHURCH",
      "FACILITY_T": "Religious Institution",
      "FACILITY_DOMAIN_NAME": "Church",
      "LNG": -73.9900650040638,
      "LAT": 40.728955845022305,
      "DISTANCE_TO_FACILITY": 0.41704465360474785
    },
    {
      "BOROUGH": "Manhattan",
      "NAME": "FRIENDS SEMINARY SCHOOL",
      "FACILITY_T": "Education Facility",
      "FACILITY_DOMAIN_NAME": "Private/Parochial Elementary School",
      "LNG": -73.98511567117043,
      "LAT": 40.7340030903888,
      "DISTANCE_TO_FACILITY": 0.6925755332395767
    },
    {
      "BOROUGH": "Manhattan",
      "NAME": "GRACE CHURCH",
      "FACILITY_T": "Religious Institution",
      "FACILITY_DOMAIN_NAME": "Church",
      "LNG": -73.99093864629803,
      "LAT": 40.731995961833846,
      "DISTANCE_TO_FACILITY": 0.2136315026386555
    },
    {
      "BOROUGH": "Manhattan",
      "NAME": "GRACE CHURCH HIGH SCHOOL",
      "FACILITY_T": "Education Facility",
      "FACILITY_DOMAIN_NAME": "Private/Parochial High School",
      "LNG": -73.99136548795559,
      "LAT": 40.72871446581697,
      "DISTANCE_TO_FACILITY": 0.5881914573863014
    },
    {
      "BOROUGH": "Manhattan",
      "NAME": "GRACE CHURCH SCHOOL",
      "FACILITY_T": "Education Facility",
      "FACILITY_DOMAIN_NAME": "Private/Parochial K-8",
      "LNG": -73.99054379021283,
      "LAT": 40.73183466753954,
      "DISTANCE_TO_FACILITY": 0.15189881051233556
    },
    {
      "BOROUGH": "Manhattan",
      "NAME": "GRACE MEMORIAL HOUSE",
      "FACILITY_T": "Religious Institution",
      "FACILITY_DOMAIN_NAME": "Other",
      "LNG": -73.99050400793367,
      "LAT": 40.73205312539457,
      "DISTANCE_TO_FACILITY": 0.1717317994343901
    },
    {
      "BOROUGH": "Manhattan",
      "NAME": "GRAMERCY ARTS HIGH SCHOOL",
      "FACILITY_T": "Education Facility",
      "FACILITY_DOMAIN_NAME": "Public High School",
      "LNG": -73.98726731340065,
      "LAT": 40.73558038674741,
      "DISTANCE_TO_FACILITY": 0.6288231414905852
    },
    {
      "BOROUGH": "Manhattan",
      "NAME": "HARVEY MILK HIGH SCHOOL",
      "FACILITY_T": "Education Facility",
      "FACILITY_DOMAIN_NAME": "Public High School",
      "LNG": -73.99266754238698,
      "LAT": 40.72987472464049,
      "DISTANCE_TO_FACILITY": 0.6039307698603125
    },
    {
      "BOROUGH": "Manhattan",
      "NAME": "INSTITUTE FOR COLLABORATIVE EDUCATION",
      "FACILITY_T": "Education Facility",
      "FACILITY_DOMAIN_NAME": "Public Secondary School",
      "LNG": -73.9826905735984,
      "LAT": 40.73250073793425,
      "DISTANCE_TO_FACILITY": 0.7769817587210284
    },
    {
      "BOROUGH": "Manhattan",
      "NAME": "INTERNATIONAL HIGH SCHOOL AT UNION SQUARE",
      "FACILITY_T": "Education Facility",
      "FACILITY_DOMAIN_NAME": "Public High School",
      "LNG": -73.9873279570932,
      "LAT": 40.73550582892256,
      "DISTANCE_TO_FACILITY": 0.6138157730597413
    },
    {
      "BOROUGH": "Manhattan",
      "NAME": "IRVING PLACE THEATRE",
      "FACILITY_T": "Cultural Facility",
      "FACILITY_DOMAIN_NAME": "Theater/Concert Hall",
      "LNG": -73.98839158947641,
      "LAT": 40.73488066145758,
      "DISTANCE_TO_FACILITY": 0.42635898991074583
    },
    {
      "BOROUGH": "Manhattan",
      "NAME": "MANHATTAN COMPREHENSIVE NIGHT & DAY HIGH SCHOOL",
      "FACILITY_T": "Education Facility",
      "FACILITY_DOMAIN_NAME": "Public High School",
      "LNG": -73.98433418732877,
      "LAT": 40.73272266160678,
      "DISTANCE_TO_FACILITY": 0.6371926448595104
    },
    {
      "BOROUGH": "Manhattan",
      "NAME": "MANHATTAN KOREAN PRESBYTERIAN CHURCH",
      "FACILITY_T": "Religious Institution",
      "FACILITY_DOMAIN_NAME": "Church",
      "LNG": -73.98472604853251,
      "LAT": 40.73440832696705,
      "DISTANCE_TO_FACILITY": 0.7808049062345646
    },
    {
      "BOROUGH": "Manhattan",
      "NAME": "MANHATTAN SCHOOL FOR CAREER DEVELOPMENT",
      "FACILITY_T": "Education Facility",
      "FACILITY_DOMAIN_NAME": "Public High School",
      "LNG": -73.98781036789914,
      "LAT": 40.725690392032966,
      "DISTANCE_TO_FACILITY": 0.8335256475357653
    },
    {
      "BOROUGH": "Manhattan",
      "NAME": "MERCHANTS HOUSE MUSEUM",
      "FACILITY_T": "Cultural Facility",
      "FACILITY_DOMAIN_NAME": "Museum",
      "LNG": -73.99232264148033,
      "LAT": 40.727682315352716,
      "DISTANCE_TO_FACILITY": 0.8090042001644377
    },
    {
      "BOROUGH": "Manhattan",
      "NAME": "NEW SCHOOL 71 5 AV",
      "FACILITY_T": "Education Facility",
      "FACILITY_DOMAIN_NAME": "Post Secondary Degree Granting Institution",
      "LNG": -73.99301176948167,
      "LAT": 40.7364406537637,
      "DISTANCE_TO_FACILITY": 0.9371089802360615
    },
    {
      "BOROUGH": "Manhattan",
      "NAME": "NEW SCHOOL 80 5 AV",
      "FACILITY_T": "Education Facility",
      "FACILITY_DOMAIN_NAME": "Post Secondary Degree Granting Institution",
      "LNG": -73.9940052318057,
      "LAT": 40.7358980727225,
      "DISTANCE_TO_FACILITY": 0.9871568026302526
    },
    {
      "BOROUGH": "Manhattan",
      "NAME": "NEW SCHOOL FANTON HALL WELCOME CENTER",
      "FACILITY_T": "Education Facility",
      "FACILITY_DOMAIN_NAME": "Private/Parochial Secondary School",
      "LNG": -73.99425662900627,
      "LAT": 40.735535930725874,
      "DISTANCE_TO_FACILITY": 0.9748641302683083
    },
    {
      "BOROUGH": "Manhattan",
      "NAME": "NEW SCHOOL KERREY HALL",
      "FACILITY_T": "Education Facility",
      "FACILITY_DOMAIN_NAME": "Post Secondary Degree Granting Institution",
      "LNG": -73.99360605869664,
      "LAT": 40.735509329930736,
      "DISTANCE_TO_FACILITY": 0.8996981376389428
    },
    {
      "BOROUGH": "Manhattan",
      "NAME": "NEW SCHOOL LIST CENTER",
      "FACILITY_T": "Education Facility",
      "FACILITY_DOMAIN_NAME": "Post Secondary Degree Granting Institution",
      "LNG": -73.99235413509993,
      "LAT": 40.73702339283215,
      "DISTANCE_TO_FACILITY": 0.9287956004608873
    },
    {
      "BOROUGH": "Manhattan",
      "NAME": "NEW SCHOOL PARSONS EAST",
      "FACILITY_T": "Education Facility",
      "FACILITY_DOMAIN_NAME": "Post Secondary Degree Granting Institution",
      "LNG": -73.99277965924674,
      "LAT": 40.734985924589324,
      "DISTANCE_TO_FACILITY": 0.7498698058027102
    },
    {
      "BOROUGH": "Manhattan",
      "NAME": "NEW SCHOOL STUDENT STUDY CENTER",
      "FACILITY_T": "Education Facility",
      "FACILITY_DOMAIN_NAME": "Post Secondary Degree Granting Institution",
      "LNG": -73.9936813081495,
      "LAT": 40.73637362223679,
      "DISTANCE_TO_FACILITY": 1.0039872728787884
    },
    {
      "BOROUGH": "Manhattan",
      "NAME": "NEW SCHOOL UNIVERSITY UNIVERSITY CENTER",
      "FACILITY_T": "Education Facility",
      "FACILITY_DOMAIN_NAME": "Post Secondary Degree Granting Institution",
      "LNG": -73.99365023185196,
      "LAT": 40.73542522706198,
      "DISTANCE_TO_FACILITY": 0.8952659394473343
    },
    {
      "BOROUGH": "Manhattan",
      "NAME": "NEW YORK THEATRE WORKSHOP",
      "FACILITY_T": "Cultural Facility",
      "FACILITY_DOMAIN_NAME": "Theater/Concert Hall",
      "LNG": -73.99003465356788,
      "LAT": 40.72662838359661,
      "DISTANCE_TO_FACILITY": 0.6720239668096895
    },
    {
      "BOROUGH": "Manhattan",
      "NAME": "NEW YORK UNIVERSITY - 10 ASTER PLACE",
      "FACILITY_T": "Education Facility",
      "FACILITY_DOMAIN_NAME": "Post Secondary Degree Granting Institution",
      "LNG": -73.99199767007822,
      "LAT": 40.7296977064651,
      "DISTANCE_TO_FACILITY": 0.5492239610554819
    },
    {
      "BOROUGH": "Manhattan",
      "NAME": "NEW YORK UNIVERSITY 113 UNIVERSITY PLACE",
      "FACILITY_T": "Education Facility",
      "FACILITY_DOMAIN_NAME": "Post Secondary Degree Granting Institution",
      "LNG": -73.9921744624983,
      "LAT": 40.7343151052266,
      "DISTANCE_TO_FACILITY": 0.608232017463628
    },
    {
      "BOROUGH": "Manhattan",
      "NAME": "NEW YORK UNIVERSITY 145 4 AV",
      "FACILITY_T": "Education Facility",
      "FACILITY_DOMAIN_NAME": "Post Secondary Degree Granting Institution",
      "LNG": -73.98961722442996,
      "LAT": 40.73366592355322,
      "DISTANCE_TO_FACILITY": 0.2523194261331909
    },
    {
      "BOROUGH": "Manhattan",
      "NAME": "NEW YORK UNIVERSITY 19 UNIVERSITY PL",
      "FACILITY_T": "Education Facility",
      "FACILITY_DOMAIN_NAME": "Post Secondary Degree Granting Institution",
      "LNG": -73.99476119783692,
      "LAT": 40.731290015025785,
      "DISTANCE_TO_FACILITY": 0.6792292920357994
    },
    {
      "BOROUGH": "Manhattan",
      "NAME": "NEW YORK UNIVERSITY 3 AVE NORTH RESIDENCE HALL",
      "FACILITY_T": "Education Facility",
      "FACILITY_DOMAIN_NAME": "Post Secondary Degree Granting Institution",
      "LNG": -73.98810528059958,
      "LAT": 40.73150127876807,
      "DISTANCE_TO_FACILITY": 0.15578191019025667
    },
    {
      "BOROUGH": "Manhattan",
      "NAME": "NEW YORK UNIVERSITY 7 ST RESIDENCE HALL",
      "FACILITY_T": "Education Facility",
      "FACILITY_DOMAIN_NAME": "Post Secondary Degree Granting Institution",
      "LNG": -73.9887957635493,
      "LAT": 40.72810969602212,
      "DISTANCE_TO_FACILITY": 0.45560398757139353
    },
    {
      "BOROUGH": "Manhattan",
      "NAME": "NEW YORK UNIVERSITY 838 BROADWAY",
      "FACILITY_T": "Education Facility",
      "FACILITY_DOMAIN_NAME": "Post Secondary Degree Granting Institution",
      "LNG": -73.99076643622193,
      "LAT": 40.73361159844409,
      "DISTANCE_TO_FACILITY": 0.3738518479287478
    },
    {
      "BOROUGH": "Manhattan",
      "NAME": "NEW YORK UNIVERSITY ALUMNI HALL",
      "FACILITY_T": "Education Facility",
      "FACILITY_DOMAIN_NAME": "Post Secondary Degree Granting Institution",
      "LNG": -73.9890114513856,
      "LAT": 40.73015160801269,
      "DISTANCE_TO_FACILITY": 0.20501040679048543
    },
    {
      "BOROUGH": "Manhattan",
      "NAME": "NEW YORK UNIVERSITY BARNEY BUILDING",
      "FACILITY_T": "Education Facility",
      "FACILITY_DOMAIN_NAME": "Post Secondary Degree Granting Institution",
      "LNG": -73.98820776233343,
      "LAT": 40.729797182330636,
      "DISTANCE_TO_FACILITY": 0.33356114228857336
    },
    {
      "BOROUGH": "Manhattan",
      "NAME": "NEW YORK UNIVERSITY BRITTANY RESIDENCE HALL",
      "FACILITY_T": "Education Facility",
      "FACILITY_DOMAIN_NAME": "Post Secondary Degree Granting Institution",
      "LNG": -73.99172000159933,
      "LAT": 40.73199887699482,
      "DISTANCE_TO_FACILITY": 0.30068552395129444
    },
    {
      "BOROUGH": "Manhattan",
      "NAME": "NEW YORK UNIVERSITY BRONFMAN CENTER",
      "FACILITY_T": "Education Facility",
      "FACILITY_DOMAIN_NAME": "Post Secondary Degree Granting Institution",
      "LNG": -73.99466210241249,
      "LAT": 40.73324236422669,
      "DISTANCE_TO_FACILITY": 0.7652857969491436
    },
    {
      "BOROUGH": "Manhattan",
      "NAME": "NEW YORK UNIVERSITY CANTOR FILM CENTER",
      "FACILITY_T": "Cultural Facility",
      "FACILITY_DOMAIN_NAME": "Theater/Concert Hall",
      "LNG": -73.99440210201041,
      "LAT": 40.73122333898146,
      "DISTANCE_TO_FACILITY": 0.6467706962133661
    },
    {
      "BOROUGH": "Manhattan",
      "NAME": "NEW YORK UNIVERSITY CARLYLE COURT",
      "FACILITY_T": "Education Facility",
      "FACILITY_DOMAIN_NAME": "Post Secondary Degree Granting Institution",
      "LNG": -73.99115817192826,
      "LAT": 40.73629044061203,
      "DISTANCE_TO_FACILITY": 0.7146859919725586
    },
    {
      "BOROUGH": "Manhattan",
      "NAME": "NEW YORK UNIVERSITY CASA ITALIANA ZERILLI-MARIMO",
      "FACILITY_T": "Education Facility",
      "FACILITY_DOMAIN_NAME": "Post Secondary Degree Granting Institution",
      "LNG": -73.9957541286791,
      "LAT": 40.73500214650066,
      "DISTANCE_TO_FACILITY": 1.081836544953127
    },
    {
      "BOROUGH": "Manhattan",
      "NAME": "NEW YORK UNIVERSITY CORAL TOWERS",
      "FACILITY_T": "Education Facility",
      "FACILITY_DOMAIN_NAME": "Post Secondary Degree Granting Institution",
      "LNG": -73.98675164986209,
      "LAT": 40.73339408382642,
      "DISTANCE_TO_FACILITY": 0.4433821700414029
    },
    {
      "BOROUGH": "Manhattan",
      "NAME": "NEW YORK UNIVERSITY DEUTSCHES HAUS",
      "FACILITY_T": "Education Facility",
      "FACILITY_DOMAIN_NAME": "Post Secondary Degree Granting Institution",
      "LNG": -73.99520223623924,
      "LAT": 40.731355976379284,
      "DISTANCE_TO_FACILITY": 0.7208628444543024
    },
    {
      "BOROUGH": "Manhattan",
      "NAME": "NEW YORK UNIVERSITY JOHN W DRAPER PROGRAM",
      "FACILITY_T": "Education Facility",
      "FACILITY_DOMAIN_NAME": "Post Secondary Degree Granting Institution",
      "LNG": -73.99505465569796,
      "LAT": 40.73152066363555,
      "DISTANCE_TO_FACILITY": 0.6862011189265971
    },
    {
      "BOROUGH": "Manhattan",
      "NAME": "NEW YORK UNIVERSITY LA MAISON FRANCAISE",
      "FACILITY_T": "Education Facility",
      "FACILITY_DOMAIN_NAME": "Post Secondary Degree Granting Institution",
      "LNG": -73.99534181988504,
      "LAT": 40.73120810894233,
      "DISTANCE_TO_FACILITY": 0.7527699146401403
    },
    {
      "BOROUGH": "Manhattan",
      "NAME": "NEW YORK UNIVERSITY PALLADIUM HALL",
      "FACILITY_T": "Education Facility",
      "FACILITY_DOMAIN_NAME": "Post Secondary Degree Granting Institution",
      "LNG": -73.98822803015513,
      "LAT": 40.73342859267627,
      "DISTANCE_TO_FACILITY": 0.2833344398471809
    },
    {
      "BOROUGH": "Manhattan",
      "NAME": "NEW YORK UNIVERSITY RUBIN RESIDENCE HALL",
      "FACILITY_T": "Education Facility",
      "FACILITY_DOMAIN_NAME": "Post Secondary Degree Granting Institution",
      "LNG": -73.99508646411272,
      "LAT": 40.73349385579914,
      "DISTANCE_TO_FACILITY": 0.8403055102160621
    },
    {
      "BOROUGH": "Manhattan",
      "NAME": "NEW YORK UNIVERSITY RUFUS D SMITH HALL",
      "FACILITY_T": "Education Facility",
      "FACILITY_DOMAIN_NAME": "Post Secondary Degree Granting Institution",
      "LNG": -73.9948427301344,
      "LAT": 40.730539204063625,
      "DISTANCE_TO_FACILITY": 0.771619393854877
    },
    {
      "BOROUGH": "Manhattan",
      "NAME": "NEW YORK UNIVERSITY STUDENT HEALTH CENTER",
      "FACILITY_T": "Education Facility",
      "FACILITY_DOMAIN_NAME": "Post Secondary Degree Granting Institution",
      "LNG": -73.99312069397476,
      "LAT": 40.729289945108924,
      "DISTANCE_TO_FACILITY": 0.719141124107253
    },
    {
      "BOROUGH": "Manhattan",
      "NAME": "NEW YORK UNIVERSITY UNIVERSITY HALL",
      "FACILITY_T": "Education Facility",
      "FACILITY_DOMAIN_NAME": "Post Secondary Degree Granting Institution",
      "LNG": -73.98917749981094,
      "LAT": 40.73387956159464,
      "DISTANCE_TO_FACILITY": 0.2280008579918018
    },
    {
      "BOROUGH": "Manhattan",
      "NAME": "NEW YORK UNIVERSITY WEINSTEIN HALL",
      "FACILITY_T": "Education Facility",
      "FACILITY_DOMAIN_NAME": "Post Secondary Degree Granting Institution",
      "LNG": -73.9950084451612,
      "LAT": 40.73096437567487,
      "DISTANCE_TO_FACILITY": 0.7428197129823033
    },
    {
      "BOROUGH": "Manhattan",
      "NAME": "NY EYE & EAR INFIRMARY MT SINAI",
      "FACILITY_T": "Health Services",
      "FACILITY_DOMAIN_NAME": "Outpatient care center/Clinic",
      "LNG": -73.98451264597486,
      "LAT": 40.731898147170696,
      "DISTANCE_TO_FACILITY": 0.5258626327383311
    },
    {
      "BOROUGH": "Manhattan",
      "NAME": "NYU 285 MERCER STREET",
      "FACILITY_T": "Education Facility",
      "FACILITY_DOMAIN_NAME": "Post Secondary Degree Granting Institution",
      "LNG": -73.9942957919507,
      "LAT": 40.72990645889662,
      "DISTANCE_TO_FACILITY": 0.7811439690027626
    },
    {
      "BOROUGH": "Manhattan",
      "NAME": "NYU BROADWAY BLOCK A",
      "FACILITY_T": "Education Facility",
      "FACILITY_DOMAIN_NAME": "Post Secondary Degree Granting Institution",
      "LNG": -73.99387851412898,
      "LAT": 40.72929480612192,
      "DISTANCE_TO_FACILITY": 0.8027195887830771
    },
    {
      "BOROUGH": "Manhattan",
      "NAME": "NYU BROADWAY BLOCK B",
      "FACILITY_T": "Education Facility",
      "FACILITY_DOMAIN_NAME": "Post Secondary Degree Granting Institution",
      "LNG": -73.99378189759754,
      "LAT": 40.72937750865487,
      "DISTANCE_TO_FACILITY": 0.7828151726361625
    },
    {
      "BOROUGH": "Manhattan",
      "NAME": "NYU BROADWAY BLOCK C",
      "FACILITY_T": "Education Facility",
      "FACILITY_DOMAIN_NAME": "Post Secondary Degree Granting Institution",
      "LNG": -73.99371187734813,
      "LAT": 40.729465385279696,
      "DISTANCE_TO_FACILITY": 0.7652886195960704
    },
    {
      "BOROUGH": "Manhattan",
      "NAME": "NYU CENTER FOR DATA SCIENCE",
      "FACILITY_T": "Education Facility",
      "FACILITY_DOMAIN_NAME": "Post Secondary Degree Granting Institution",
      "LNG": -73.99472714821795,
      "LAT": 40.734960265831354,
      "DISTANCE_TO_FACILITY": 0.9631929594725221
    },
    {
      "BOROUGH": "Manhattan",
      "NAME": "NYU NUTRITION & FOOD STUDIES",
      "FACILITY_T": "Education Facility",
      "FACILITY_DOMAIN_NAME": "Post Secondary Degree Granting Institution",
      "LNG": -73.99236632083759,
      "LAT": 40.728367504310214,
      "DISTANCE_TO_FACILITY": 0.7377966345382774
    },
    {
      "BOROUGH": "Manhattan",
      "NAME": "NYU REPROGRAPHIC SERVICES",
      "FACILITY_T": "Education Facility",
      "FACILITY_DOMAIN_NAME": "Post Secondary Degree Granting Institution",
      "LNG": -73.99447078147767,
      "LAT": 40.73000627172447,
      "DISTANCE_TO_FACILITY": 0.7894885826050881
    },
    {
      "BOROUGH": "Manhattan",
      "NAME": "NYU SCHOOL OF PROFESSIONAL STUDIES 7 E 12 ST",
      "FACILITY_T": "Education Facility",
      "FACILITY_DOMAIN_NAME": "Post Secondary Degree Granting Institution",
      "LNG": -73.99371053499104,
      "LAT": 40.73450657339934,
      "DISTANCE_TO_FACILITY": 0.7999890313316342
    },
    {
      "BOROUGH": "Manhattan",
      "NAME": "NYU TISCH DEPARTMENT OF DANCE",
      "FACILITY_T": "Education Facility",
      "FACILITY_DOMAIN_NAME": "Post Secondary Degree Granting Institution",
      "LNG": -73.98857778483567,
      "LAT": 40.727820638579004,
      "DISTANCE_TO_FACILITY": 0.5118850009711693
    },
    {
      "BOROUGH": "Manhattan",
      "NAME": "ORPHEUM THEATRE 2 AV",
      "FACILITY_T": "Cultural Facility",
      "FACILITY_DOMAIN_NAME": "Theater/Concert Hall",
      "LNG": -73.98750927953347,
      "LAT": 40.72819757912456,
      "DISTANCE_TO_FACILITY": 0.5886486889585427
    },
    {
      "BOROUGH": "Manhattan",
      "NAME": "ORTHODOX CATHEDRAL HOLY VIRGIN PROTECTION CHURCH",
      "FACILITY_T": "Religious Institution",
      "FACILITY_DOMAIN_NAME": "Church",
      "LNG": -73.98944964842386,
      "LAT": 40.72438027054797,
      "DISTANCE_TO_FACILITY": 0.8566289442232105
    },
    {
      "BOROUGH": "Manhattan",
      "NAME": "OTTENDORFER LIBRARY",
      "FACILITY_T": "Cultural Facility",
      "FACILITY_DOMAIN_NAME": "Library",
      "LNG": -73.98774284078667,
      "LAT": 40.72890664049252,
      "DISTANCE_TO_FACILITY": 0.4840175780105511
    },
    {
      "BOROUGH": "Manhattan",
      "NAME": "PARSONS SCHOOL OF DESIGN THE NEW SCHOOL",
      "FACILITY_T": "Education Facility",
      "FACILITY_DOMAIN_NAME": "Post Secondary Degree Granting Institution",
      "LNG": -73.99456928398648,
      "LAT": 40.735152766664925,
      "DISTANCE_TO_FACILITY": 0.9670376223058454
    },
    {
      "BOROUGH": "Manhattan",
      "NAME": "PS 19 ASHER LEVY",
      "FACILITY_T": "Education Facility",
      "FACILITY_DOMAIN_NAME": "Public Elementary School",
      "LNG": -73.98414004866397,
      "LAT": 40.72979234341798,
      "DISTANCE_TO_FACILITY": 0.7856144789034403
    },
    {
      "BOROUGH": "Manhattan",
      "NAME": "PS 226",
      "FACILITY_T": "Education Facility",
      "FACILITY_DOMAIN_NAME": "Public K-12 all grades",
      "LNG": -73.98275774092944,
      "LAT": 40.732524274430155,
      "DISTANCE_TO_FACILITY": 0.7818247814212143
    },
    {
      "BOROUGH": "Manhattan",
      "NAME": "PUBLIC THEATER",
      "FACILITY_T": "Cultural Facility",
      "FACILITY_DOMAIN_NAME": "Theater/Concert Hall",
      "LNG": -73.99170939731749,
      "LAT": 40.729069076721274,
      "DISTANCE_TO_FACILITY": 0.5870035861798257
    },
    {
      "BOROUGH": "Manhattan",
      "NAME": "REGAL UNION SQUARE STADIUM 14",
      "FACILITY_T": "Cultural Facility",
      "FACILITY_DOMAIN_NAME": "Theater/Concert Hall",
      "LNG": -73.99062811615492,
      "LAT": 40.73408287529333,
      "DISTANCE_TO_FACILITY": 0.41081005075633925
    },
    {
      "BOROUGH": "Manhattan",
      "NAME": "RELIGIOUS FRIENDS SOCIETY",
      "FACILITY_T": "Religious Institution",
      "FACILITY_DOMAIN_NAME": "Other",
      "LNG": -73.98514359044151,
      "LAT": 40.73379398542361,
      "DISTANCE_TO_FACILITY": 0.6662658430135906
    },
    {
      "BOROUGH": "Manhattan",
      "NAME": "SIXTH STREET COMMUNITY SYNAGOGUE",
      "FACILITY_T": "Religious Institution",
      "FACILITY_DOMAIN_NAME": "Synagogue",
      "LNG": -73.98726122494128,
      "LAT": 40.72704755182582,
      "DISTANCE_TO_FACILITY": 0.743835778852123
    },
    {
      "BOROUGH": "Manhattan",
      "NAME": "ST ANNS FOR THE DEAF CHURCH",
      "FACILITY_T": "Religious Institution",
      "FACILITY_DOMAIN_NAME": "Church",
      "LNG": -73.98536132454998,
      "LAT": 40.7345118537216,
      "DISTANCE_TO_FACILITY": 0.7217807380497803
    },
    {
      "BOROUGH": "Manhattan",
      "NAME": "ST CYRIL METHODIUS CHURCH",
      "FACILITY_T": "Religious Institution",
      "FACILITY_DOMAIN_NAME": "Church",
      "LNG": -73.98646187899529,
      "LAT": 40.72791753347574,
      "DISTANCE_TO_FACILITY": 0.7359952157161445
    },
    {
      "BOROUGH": "Manhattan",
      "NAME": "ST GEORGE ACADEMY HIGH SCHOOL",
      "FACILITY_T": "Education Facility",
      "FACILITY_DOMAIN_NAME": "Private/Parochial High School",
      "LNG": -73.98981368266931,
      "LAT": 40.72812375961032,
      "DISTANCE_TO_FACILITY": 0.48150945954716917
    },
    {
      "BOROUGH": "Manhattan",
      "NAME": "ST GEORGE EPISC CH",
      "FACILITY_T": "Religious Institution",
      "FACILITY_DOMAIN_NAME": "Church",
      "LNG": -73.98487360208163,
      "LAT": 40.73429362448026,
      "DISTANCE_TO_FACILITY": 0.7516944862477644
    },
    {
      "BOROUGH": "Manhattan",
      "NAME": "ST GEORGE UKRAINIAN CATHOLIC CHURCH",
      "FACILITY_T": "Religious Institution",
      "FACILITY_DOMAIN_NAME": "Church",
      "LNG": -73.98977415950465,
      "LAT": 40.728456366797886,
      "DISTANCE_TO_FACILITY": 0.440202990450139
    },
    {
      "BOROUGH": "Manhattan",
      "NAME": "ST JOHN THE BAPTIST GREEK ORTHODOX CHURCH",
      "FACILITY_T": "Religious Institution",
      "FACILITY_DOMAIN_NAME": "Church",
      "LNG": -73.98620326549056,
      "LAT": 40.735553623626046,
      "DISTANCE_TO_FACILITY": 0.7439617530395779
    },
    {
      "BOROUGH": "Manhattan",
      "NAME": "ST JOHNS UNIVERSITY MANHATTAN CAMPUS",
      "FACILITY_T": "Education Facility",
      "FACILITY_DOMAIN_NAME": "Post Secondary Degree Granting Institution",
      "LNG": -73.99037770232371,
      "LAT": 40.73015530295802,
      "DISTANCE_TO_FACILITY": 0.3186143295916395
    },
    {
      "BOROUGH": "Manhattan",
      "NAME": "ST MARKS CHURCH IN THE BOWERY",
      "FACILITY_T": "Religious Institution",
      "FACILITY_DOMAIN_NAME": "Other",
      "LNG": -73.98709797856608,
      "LAT": 40.73028159659099,
      "DISTANCE_TO_FACILITY": 0.40297715756463504
    },
    {
      "BOROUGH": "Manhattan",
      "NAME": "ST MARYS BYZANTINE CHURCH",
      "FACILITY_T": "Religious Institution",
      "FACILITY_DOMAIN_NAME": "Church",
      "LNG": -73.98482924723899,
      "LAT": 40.73299067733111,
      "DISTANCE_TO_FACILITY": 0.6119907402255933
    },
    {
      "BOROUGH": "Manhattan",
      "NAME": "STUYVESANT SQUARE",
      "FACILITY_T": "Recreational Facility",
      "FACILITY_DOMAIN_NAME": "Park",
      "LNG": -73.98441469591309,
      "LAT": 40.733853048547836,
      "DISTANCE_TO_FACILITY": 0.7537291424574875
    },
    {
      "BOROUGH": "Manhattan",
      "NAME": "SUCCESS ACADEMY UNION SQUARE MANHATTAN 1",
      "FACILITY_T": "Education Facility",
      "FACILITY_DOMAIN_NAME": "Public Elementary School",
      "LNG": -73.98723945501781,
      "LAT": 40.73561629697819,
      "DISTANCE_TO_FACILITY": 0.6359014576025785
    },
    {
      "BOROUGH": "Manhattan",
      "NAME": "TBPD DIST 04",
      "FACILITY_T": "Public Safety",
      "FACILITY_DOMAIN_NAME": "NYPD Other",
      "LNG": -73.99097109772053,
      "LAT": 40.735196129641835,
      "DISTANCE_TO_FACILITY": 0.5724522372228122
    },
    {
      "BOROUGH": "Manhattan",
      "NAME": "THE CLINTON SCHOOL",
      "FACILITY_T": "Education Facility",
      "FACILITY_DOMAIN_NAME": "Public Junior High-Intermediate-Middle",
      "LNG": -73.99244643460355,
      "LAT": 40.73621145699415,
      "DISTANCE_TO_FACILITY": 0.8489159673446096
    },
    {
      "BOROUGH": "Manhattan",
      "NAME": "THE HIGH SCHOOL FOR LANGUAGE AND DIPLOMACY",
      "FACILITY_T": "Education Facility",
      "FACILITY_DOMAIN_NAME": "Public High School",
      "LNG": -73.98728558501456,
      "LAT": 40.735545674103356,
      "DISTANCE_TO_FACILITY": 0.6229418888567579
    },
    {
      "BOROUGH": "Manhattan",
      "NAME": "THE NEW SCHOOL LOEB HALL RESIDENCE",
      "FACILITY_T": "Education Facility",
      "FACILITY_DOMAIN_NAME": "Post Secondary Degree Granting Institution",
      "LNG": -73.98855661927739,
      "LAT": 40.73232868476909,
      "DISTANCE_TO_FACILITY": 0.1247712695788934
    },
    {
      "BOROUGH": "Manhattan",
      "NAME": "THE NEW SCHOOL STUYVESANT PARK RESIDENCE",
      "FACILITY_T": "Education Facility",
      "FACILITY_DOMAIN_NAME": "Post Secondary Degree Granting Institution",
      "LNG": -73.98371380856157,
      "LAT": 40.7325290840872,
      "DISTANCE_TO_FACILITY": 0.6845675833445739
    },
    {
      "BOROUGH": "Manhattan",
      "NAME": "THIRD STREET MUSIC SCHOOL SETTLEMENT",
      "FACILITY_T": "Education Facility",
      "FACILITY_DOMAIN_NAME": "Private/Parochial K-12 all grades",
      "LNG": -73.98705129340644,
      "LAT": 40.73082773732758,
      "DISTANCE_TO_FACILITY": 0.3475375885239771
    },
    {
      "BOROUGH": "Manhattan",
      "NAME": "TOWN & VILLAGE SYNAGOGUE",
      "FACILITY_T": "Religious Institution",
      "FACILITY_DOMAIN_NAME": "Synagogue",
      "LNG": -73.98363833100134,
      "LAT": 40.731554067309155,
      "DISTANCE_TO_FACILITY": 0.6457537875345452
    },
    {
      "BOROUGH": "Manhattan",
      "NAME": "UKRAINIAN MUSEUM",
      "FACILITY_T": "Cultural Facility",
      "FACILITY_DOMAIN_NAME": "Museum",
      "LNG": -73.98970714095991,
      "LAT": 40.72773383074895,
      "DISTANCE_TO_FACILITY": 0.512965433415502
    },
    {
      "BOROUGH": "Manhattan",
      "NAME": "UNION SQUARE ACADEMY FOR HEALTH SCIENCES",
      "FACILITY_T": "Education Facility",
      "FACILITY_DOMAIN_NAME": "Public High School",
      "LNG": -73.98738027964801,
      "LAT": 40.73544285795803,
      "DISTANCE_TO_FACILITY": 0.6010181924126528
    },
    {
      "BOROUGH": "Manhattan",
      "NAME": "UNION SQUARE PARK",
      "FACILITY_T": "Recreational Facility",
      "FACILITY_DOMAIN_NAME": "Park",
      "LNG": -73.99042415171989,
      "LAT": 40.735928606907805,
      "DISTANCE_TO_FACILITY": 0.5930462076744973
    },
    {
      "BOROUGH": "Manhattan",
      "NAME": "UNION SQUARE PARK E SUBWAY KIOSK",
      "FACILITY_T": "Transportation Facility",
      "FACILITY_DOMAIN_NAME": "Other",
      "LNG": -73.99028302493498,
      "LAT": 40.73528086296492,
      "DISTANCE_TO_FACILITY": 0.5054815568891797
    },
    {
      "BOROUGH": "Manhattan",
      "NAME": "UNION SQUARE PARK W SUBWAY KIOSK",
      "FACILITY_T": "Transportation Facility",
      "FACILITY_DOMAIN_NAME": "Other",
      "LNG": -73.99106561350153,
      "LAT": 40.73529372301535,
      "DISTANCE_TO_FACILITY": 0.5937763533743663
    },
    {
      "BOROUGH": "Manhattan",
      "NAME": "UNION SQUARE PLAYGROUND",
      "FACILITY_T": "Recreational Facility",
      "FACILITY_DOMAIN_NAME": "Playground",
      "LNG": -73.99047927489364,
      "LAT": 40.73618152178092,
      "DISTANCE_TO_FACILITY": 0.6272384308767798
    },
    {
      "BOROUGH": "Manhattan",
      "NAME": "VILLAGE EAST THEATRES INC",
      "FACILITY_T": "Cultural Facility",
      "FACILITY_DOMAIN_NAME": "Theater/Concert Hall",
      "LNG": -73.98638129988613,
      "LAT": 40.73096604116066,
      "DISTANCE_TO_FACILITY": 0.40655514380557634
    },
    {
      "BOROUGH": "Manhattan",
      "NAME": "VILLAGE TEMPLE",
      "FACILITY_T": "Religious Institution",
      "FACILITY_DOMAIN_NAME": "Temple",
      "LNG": -73.99223166337704,
      "LAT": 40.73385404858421,
      "DISTANCE_TO_FACILITY": 0.5634040276992067
    },
    {
      "BOROUGH": "Manhattan",
      "NAME": "WASHINGTON IRVING EDUCATIONAL CAMPUS",
      "FACILITY_T": "Education Facility",
      "FACILITY_DOMAIN_NAME": "Public School Building",
      "LNG": -73.98717620747931,
      "LAT": 40.73541615749688,
      "DISTANCE_TO_FACILITY": 0.6207064519507952
    },
    {
      "BOROUGH": "Manhattan",
      "NAME": "WEBSTER HALL",
      "FACILITY_T": "Cultural Facility",
      "FACILITY_DOMAIN_NAME": "Theater/Concert Hall",
      "LNG": -73.98919588921424,
      "LAT": 40.731747036284375,
      "DISTANCE_TO_FACILITY": 0.01075067521497175
    }
  ],
  "10004": [
    {
      "BOROUGH": "Manhattan",
      "NAME": "BAY RIDGE CHANNEL LIGHTED GONG BUOY 11",
      "FACILITY_T": "Transportation Facility",
      "FACILITY_DOMAIN_NAME": "Water Navigation",
      "LNG": -74.02408440684516,
      "LAT": 40.67243669275976,
      "DISTANCE_TO_FACILITY": 2.445742263480497
    },
    {
      "BOROUGH": "Manhattan",
      "NAME": "BROOKLYN CRUISE TERMINAL",
      "FACILITY_T": "Transportation Facility",
      "FACILITY_DOMAIN_NAME": "Ferry landing/terminal",
      "LNG": -74.01419621579271,
      "LAT": 40.681919347207646,
      "DISTANCE_TO_FACILITY": 1.1941865069605413
    },
    {
      "BOROUGH": "Manhattan",
      "NAME": "BUTTERMILK CHANNEL ENTRANCE LIGHTED GONG BUOY 1",
      "FACILITY_T": "Transportation Facility",
      "FACILITY_DOMAIN_NAME": "Water Navigation",
      "LNG": -74.02877920367384,
      "LAT": 40.67976974048141,
      "DISTANCE_TO_FACILITY": 2.15289641435988
    },
    {
      "BOROUGH": "Manhattan",
      "NAME": "BUTTERMILK CHANNEL RANGE FRONT LIGHT",
      "FACILITY_T": "Transportation Facility",
      "FACILITY_DOMAIN_NAME": "Water Navigation",
      "LNG": -74.01691694803696,
      "LAT": 40.68102795751544,
      "DISTANCE_TO_FACILITY": 0.9911294836830251
    },
    {
      "BOROUGH": "Manhattan",
      "NAME": "BUTTERMILK CHANNEL RANGE REAR LIGHT",
      "FACILITY_T": "Transportation Facility",
      "FACILITY_DOMAIN_NAME": "Water Navigation",
      "LNG": -74.01436102662387,
      "LAT": 40.681750291046534,
      "DISTANCE_TO_FACILITY": 1.1946577385846737
    },
    {
      "BOROUGH": "Manhattan",
      "NAME": "GOWANUS FLATS LIGHTED BELL BUOY 28",
      "FACILITY_T": "Transportation Facility",
      "FACILITY_DOMAIN_NAME": "Water Navigation",
      "LNG": -74.04000070981951,
      "LAT": 40.67193675911721,
      "DISTANCE_TO_FACILITY": 4.267944527956182
    },
    {
      "BOROUGH": "Manhattan",
      "NAME": "LOUIS J VALENTINO JR PARK",
      "FACILITY_T": "Recreational Facility",
      "FACILITY_DOMAIN_NAME": "Park",
      "LNG": -74.01799566089404,
      "LAT": 40.67827707911909,
      "DISTANCE_TO_FACILITY": 1.1767398585418434
    },
    {
      "BOROUGH": "Manhattan",
      "NAME": "LOUIS J VALENTINO JR PIER",
      "FACILITY_T": "Transportation Facility",
      "FACILITY_DOMAIN_NAME": "Pier",
      "LNG": -74.01956016598663,
      "LAT": 40.678392615919506,
      "DISTANCE_TO_FACILITY": 1.2824440574518974
    },
    {
      "BOROUGH": "Manhattan",
      "NAME": "NEW JERSEY PIERHEAD NORTH ENTRANCE BUOY 3",
      "FACILITY_T": "Transportation Facility",
      "FACILITY_DOMAIN_NAME": "Water Navigation",
      "LNG": -74.04952597864504,
      "LAT": 40.67733150207605,
      "DISTANCE_TO_FACILITY": 4.726432899158247
    },
    {
      "BOROUGH": "Manhattan",
      "NAME": "PIER 12",
      "FACILITY_T": "Transportation Facility",
      "FACILITY_DOMAIN_NAME": "Pier",
      "LNG": -74.01430954039715,
      "LAT": 40.68204835172118,
      "DISTANCE_TO_FACILITY": 1.1672879748654452
    },
    {
      "BOROUGH": "Manhattan",
      "NAME": "PIER 41",
      "FACILITY_T": "Transportation Facility",
      "FACILITY_DOMAIN_NAME": "Pier",
      "LNG": -74.01767226114605,
      "LAT": 40.67693371010272,
      "DISTANCE_TO_FACILITY": 1.3617511913864817
    },
    {
      "BOROUGH": "Manhattan",
      "NAME": "RED HOOK PIER 44 OBSTRUCTION BUOY",
      "FACILITY_T": "Transportation Facility",
      "FACILITY_DOMAIN_NAME": "Water Navigation",
      "LNG": -74.01983329162452,
      "LAT": 40.67438334355791,
      "DISTANCE_TO_FACILITY": 1.7577902353944168
    },
    {
      "BOROUGH": "Manhattan",
      "NAME": "WATERFRONT MUSEUM",
      "FACILITY_T": "Cultural Facility",
      "FACILITY_DOMAIN_NAME": "Museum",
      "LNG": -74.01835407283815,
      "LAT": 40.675179544643804,
      "DISTANCE_TO_FACILITY": 1.5052186295732994
    },
    {
      "BOROUGH": "Manhattan",
      "NAME": "BUTTERMILK CHANNEL BUOY 5",
      "FACILITY_T": "Transportation Facility",
      "FACILITY_DOMAIN_NAME": "Water Navigation",
      "LNG": -74.0129172901648,
      "LAT": 40.68704728145173,
      "DISTANCE_TO_FACILITY": 0.7669465505654998
    },
    {
      "BOROUGH": "Manhattan",
      "NAME": "BUTTERMILK CHANNEL BUOY 7",
      "FACILITY_T": "Transportation Facility",
      "FACILITY_DOMAIN_NAME": "Water Navigation",
      "LNG": -74.01152831569107,
      "LAT": 40.68843606947905,
      "DISTANCE_TO_FACILITY": 0.7669672461166499
    },
    {
      "BOROUGH": "Manhattan",
      "NAME": "GOVERNORS IS PIER 102 FERRY LANDING",
      "FACILITY_T": "Transportation Facility",
      "FACILITY_DOMAIN_NAME": "Ferry landing/terminal",
      "LNG": -74.01206401072805,
      "LAT": 40.69115246395255,
      "DISTANCE_TO_FACILITY": 0.9659723079180367
    },
    {
      "BOROUGH": "Manhattan",
      "NAME": "GOVERNORS ISLAND COLONELS ROW",
      "FACILITY_T": "Recreational Facility",
      "FACILITY_DOMAIN_NAME": "Park",
      "LNG": -74.01864231002658,
      "LAT": 40.69060453386,
      "DISTANCE_TO_FACILITY": 0.2633856714099352
    },
    {
      "BOROUGH": "Manhattan",
      "NAME": "GOVERNORS ISLAND EAST RACK LIGHT",
      "FACILITY_T": "Transportation Facility",
      "FACILITY_DOMAIN_NAME": "Water Navigation",
      "LNG": -74.01449970200885,
      "LAT": 40.693548616998704,
      "DISTANCE_TO_FACILITY": 0.9615835638731838
    },
    {
      "BOROUGH": "Manhattan",
      "NAME": "GOVERNORS ISLAND EXTENSION LIGHT",
      "FACILITY_T": "Transportation Facility",
      "FACILITY_DOMAIN_NAME": "Water Navigation",
      "LNG": -74.0264719450014,
      "LAT": 40.6857778885431,
      "DISTANCE_TO_FACILITY": 1.2298862668725832
    },
    {
      "BOROUGH": "Manhattan",
      "NAME": "GOVERNORS ISLAND FERRY GOVERNORS ISLAND TERMINAL",
      "FACILITY_T": "Transportation Facility",
      "FACILITY_DOMAIN_NAME": "Ferry landing/terminal",
      "LNG": -74.01538490768326,
      "LAT": 40.693028869135375,
      "DISTANCE_TO_FACILITY": 0.8056337211844067
    },
    {
      "BOROUGH": "Manhattan",
      "NAME": "GOVERNORS ISLAND FERRY RACK LOWER FOG LIGHTS (3) & CENTER RACK",
      "FACILITY_T": "Transportation Facility",
      "FACILITY_DOMAIN_NAME": "Water Navigation",
      "LNG": -74.01502860075853,
      "LAT": 40.69352435015214,
      "DISTANCE_TO_FACILITY": 0.9001821826900667
    },
    {
      "BOROUGH": "Manhattan",
      "NAME": "GOVERNORS ISLAND FORT JAY",
      "FACILITY_T": "Recreational Facility",
      "FACILITY_DOMAIN_NAME": "Park",
      "LNG": -74.01595055574461,
      "LAT": 40.691370353187445,
      "DISTANCE_TO_FACILITY": 0.5587515161538406
    },
    {
      "BOROUGH": "Manhattan",
      "NAME": "GOVERNORS ISLAND HAMMOCK GROVE",
      "FACILITY_T": "Recreational Facility",
      "FACILITY_DOMAIN_NAME": "Park",
      "LNG": -74.02091421789066,
      "LAT": 40.688731409983234,
      "DISTANCE_TO_FACILITY": 0.30765069400266043
    },
    {
      "BOROUGH": "Manhattan",
      "NAME": "GOVERNORS ISLAND LIGGETT TERRACE",
      "FACILITY_T": "Recreational Facility",
      "FACILITY_DOMAIN_NAME": "Park",
      "LNG": -74.01873894279022,
      "LAT": 40.689174950896614,
      "DISTANCE_TO_FACILITY": 0.1154281992389059
    },
    {
      "BOROUGH": "Manhattan",
      "NAME": "GOVERNORS ISLAND LIGHT (2)",
      "FACILITY_T": "Transportation Facility",
      "FACILITY_DOMAIN_NAME": "Water Navigation",
      "LNG": -74.0196385910075,
      "LAT": 40.69292059440779,
      "DISTANCE_TO_FACILITY": 0.631055581097776
    },
    {
      "BOROUGH": "Manhattan",
      "NAME": "GOVERNORS ISLAND NOLAN PARK",
      "FACILITY_T": "Recreational Facility",
      "FACILITY_DOMAIN_NAME": "Park",
      "LNG": -74.0139719087598,
      "LAT": 40.689637855456034,
      "DISTANCE_TO_FACILITY": 0.586074083281197
    },
    {
      "BOROUGH": "Manhattan",
      "NAME": "GOVERNORS ISLAND PARADE GROUND",
      "FACILITY_T": "Recreational Facility",
      "FACILITY_DOMAIN_NAME": "Park",
      "LNG": -74.0159908088805,
      "LAT": 40.689539905186706,
      "DISTANCE_TO_FACILITY": 0.351103689987724
    },
    {
      "BOROUGH": "Manhattan",
      "NAME": "GOVERNORS ISLAND PICNIC POINT",
      "FACILITY_T": "Recreational Facility",
      "FACILITY_DOMAIN_NAME": "Park",
      "LNG": -74.02568017977337,
      "LAT": 40.685778387436415,
      "DISTANCE_TO_FACILITY": 1.1419449494033955
    },
    {
      "BOROUGH": "Manhattan",
      "NAME": "GOVERNORS ISLAND PIER 101",
      "FACILITY_T": "Transportation Facility",
      "FACILITY_DOMAIN_NAME": "Pier",
      "LNG": -74.0124778754024,
      "LAT": 40.69136759372839,
      "DISTANCE_TO_FACILITY": 0.9439127341840958
    },
    {
      "BOROUGH": "Manhattan",
      "NAME": "GOVERNORS ISLAND PIER 102",
      "FACILITY_T": "Transportation Facility",
      "FACILITY_DOMAIN_NAME": "Pier",
      "LNG": -74.0122801686629,
      "LAT": 40.6910940609627,
      "DISTANCE_TO_FACILITY": 0.9354960452769632
    },
    {
      "BOROUGH": "Manhattan",
      "NAME": "GOVERNORS ISLAND PLAY LAWN",
      "FACILITY_T": "Recreational Facility",
      "FACILITY_DOMAIN_NAME": "Park",
      "LNG": -74.02158367252747,
      "LAT": 40.687554275527226,
      "DISTANCE_TO_FACILITY": 0.4901090670278805
    },
    {
      "BOROUGH": "Manhattan",
      "NAME": "GOVERNORS ISLAND SOUTH BATTERY",
      "FACILITY_T": "Recreational Facility",
      "FACILITY_DOMAIN_NAME": "Park",
      "LNG": -74.01614141615147,
      "LAT": 40.68780117251864,
      "DISTANCE_TO_FACILITY": 0.32538665761773444
    },
    {
      "BOROUGH": "Manhattan",
      "NAME": "GOVERNORS ISLAND THE HILLS",
      "FACILITY_T": "Recreational Facility",
      "FACILITY_DOMAIN_NAME": "Park",
      "LNG": -74.0245428836378,
      "LAT": 40.68695922043088,
      "DISTANCE_TO_FACILITY": 0.8846326159698634
    },
    {
      "BOROUGH": "Manhattan",
      "NAME": "GOVERNORS ISLAND THE OVAL",
      "FACILITY_T": "Recreational Facility",
      "FACILITY_DOMAIN_NAME": "Park",
      "LNG": -74.02130998324503,
      "LAT": 40.68701298532435,
      "DISTANCE_TO_FACILITY": 0.5198127691964842
    },
    {
      "BOROUGH": "Manhattan",
      "NAME": "GOVERNORS ISLAND THE YARD",
      "FACILITY_T": "Recreational Facility",
      "FACILITY_DOMAIN_NAME": "Playground",
      "LNG": -74.01439783025658,
      "LAT": 40.68798760801395,
      "DISTANCE_TO_FACILITY": 0.4982303519708111
    },
    {
      "BOROUGH": "Manhattan",
      "NAME": "GOVERNORS ISLAND WEST RACK LIGHT",
      "FACILITY_T": "Transportation Facility",
      "FACILITY_DOMAIN_NAME": "Water Navigation",
      "LNG": -74.01525882150632,
      "LAT": 40.693700649797385,
      "DISTANCE_TO_FACILITY": 0.8941969403072036
    },
    {
      "BOROUGH": "Manhattan",
      "NAME": "GOVERNORS ISLAND YANKEE PIER",
      "FACILITY_T": "Transportation Facility",
      "FACILITY_DOMAIN_NAME": "Pier",
      "LNG": -74.01671230104162,
      "LAT": 40.68642513140384,
      "DISTANCE_TO_FACILITY": 0.4147589985539639
    },
    {
      "BOROUGH": "Manhattan",
      "NAME": "LIBERTY ISLAND FERRY LANDING LIBERTY ISLAND SIDE",
      "FACILITY_T": "Transportation Facility",
      "FACILITY_DOMAIN_NAME": "Ferry landing/terminal",
      "LNG": -74.04740044948413,
      "LAT": 40.68973664037905,
      "DISTANCE_TO_FACILITY": 3.3592029748133427
    },
    {
      "BOROUGH": "Manhattan",
      "NAME": "LIBERTY ISLAND SECURITY ZONE BUOY LISZ1",
      "FACILITY_T": "Transportation Facility",
      "FACILITY_DOMAIN_NAME": "Water Navigation",
      "LNG": -74.04150933269577,
      "LAT": 40.69007952609542,
      "DISTANCE_TO_FACILITY": 2.743349325821555
    },
    {
      "BOROUGH": "Manhattan",
      "NAME": "LIBERTY ISLAND SECURITY ZONE BUOY LISZ2",
      "FACILITY_T": "Transportation Facility",
      "FACILITY_DOMAIN_NAME": "Water Navigation",
      "LNG": -74.04207276839756,
      "LAT": 40.688606050085276,
      "DISTANCE_TO_FACILITY": 2.647651732664322
    },
    {
      "BOROUGH": "Manhattan",
      "NAME": "LIBERTY ISLAND SECURITY ZONE BUOY LISZ3",
      "FACILITY_T": "Transportation Facility",
      "FACILITY_DOMAIN_NAME": "Water Navigation",
      "LNG": -74.04340905329002,
      "LAT": 40.68694912524362,
      "DISTANCE_TO_FACILITY": 2.979898013151036
    },
    {
      "BOROUGH": "Manhattan",
      "NAME": "LIBERTY ISLAND SECURITY ZONE BUOY LISZ4",
      "FACILITY_T": "Transportation Facility",
      "FACILITY_DOMAIN_NAME": "Water Navigation",
      "LNG": -74.04572960815813,
      "LAT": 40.68735969336856,
      "DISTANCE_TO_FACILITY": 3.1919065416423393
    },
    {
      "BOROUGH": "Manhattan",
      "NAME": "LIBERTY ISLAND SECURITY ZONE BUOY LISZ8",
      "FACILITY_T": "Transportation Facility",
      "FACILITY_DOMAIN_NAME": "Water Navigation",
      "LNG": -74.0440613721108,
      "LAT": 40.69194697445069,
      "DISTANCE_TO_FACILITY": 3.2339124683255562
    },
    {
      "BOROUGH": "Manhattan",
      "NAME": "LIBERTY ISLAND SECURITY ZONE BUOY LISZ9",
      "FACILITY_T": "Transportation Facility",
      "FACILITY_DOMAIN_NAME": "Water Navigation",
      "LNG": -74.04257618504967,
      "LAT": 40.69120175661175,
      "DISTANCE_TO_FACILITY": 2.986337524417209
    },
    {
      "BOROUGH": "Manhattan",
      "NAME": "NATIONAL DOCK BUOY 4",
      "FACILITY_T": "Transportation Facility",
      "FACILITY_DOMAIN_NAME": "Water Navigation",
      "LNG": -74.04721511862215,
      "LAT": 40.68771299502722,
      "DISTANCE_TO_FACILITY": 3.3175817190379675
    },
    {
      "BOROUGH": "Manhattan",
      "NAME": "NATIONAL DOCK BUOY 5",
      "FACILITY_T": "Transportation Facility",
      "FACILITY_DOMAIN_NAME": "Water Navigation",
      "LNG": -74.04844193930501,
      "LAT": 40.6871158398381,
      "DISTANCE_TO_FACILITY": 3.520043040827602
    },
    {
      "BOROUGH": "Manhattan",
      "NAME": "NATIONAL DOCK CHANNEL BUOY 3",
      "FACILITY_T": "Transportation Facility",
      "FACILITY_DOMAIN_NAME": "Water Navigation",
      "LNG": -74.04655216349269,
      "LAT": 40.68610267057845,
      "DISTANCE_TO_FACILITY": 3.422739713481704
    },
    {
      "BOROUGH": "Manhattan",
      "NAME": "SOISSONS DOCK WEST FERRY LANDING",
      "FACILITY_T": "Transportation Facility",
      "FACILITY_DOMAIN_NAME": "Ferry landing/terminal",
      "LNG": -74.01545136192712,
      "LAT": 40.69303185026129,
      "DISTANCE_TO_FACILITY": 0.7985882050922442
    },
    {
      "BOROUGH": "Manhattan",
      "NAME": "STATUE OF LIBERTY MUSEUM",
      "FACILITY_T": "Cultural Facility",
      "FACILITY_DOMAIN_NAME": "Museum",
      "LNG": -74.04641194063447,
      "LAT": 40.690780429686484,
      "DISTANCE_TO_FACILITY": 3.1818848943741997
    },
    {
      "BOROUGH": "Manhattan",
      "NAME": "TANGO PIER GOVERNORS ISLAND",
      "FACILITY_T": "Transportation Facility",
      "FACILITY_DOMAIN_NAME": "Pier",
      "LNG": -74.02054778500197,
      "LAT": 40.68521646027212,
      "DISTANCE_TO_FACILITY": 0.6346230450134343
    },
    {
      "BOROUGH": "Manhattan",
      "NAME": "THE URBAN ASSEMBLY NEW YORK HARBOR SCHOOL",
      "FACILITY_T": "Education Facility",
      "FACILITY_DOMAIN_NAME": "Public High School",
      "LNG": -74.02043022797038,
      "LAT": 40.69086630658749,
      "DISTANCE_TO_FACILITY": 0.49090133592336116
    }
  ],
  "10005": [
    {
      "BOROUGH": "Manhattan",
      "NAME": "BATTERY MARITIME BUILDING FERRY",
      "FACILITY_T": "Transportation Facility",
      "FACILITY_DOMAIN_NAME": "Ferry landing/terminal",
      "LNG": -74.01178729322596,
      "LAT": 40.70118714367687,
      "DISTANCE_TO_FACILITY": 0.8649285999489678
    },
    {
      "BOROUGH": "Manhattan",
      "NAME": "BATTERY PARK PLAYGROUND",
      "FACILITY_T": "Recreational Facility",
      "FACILITY_DOMAIN_NAME": "Playground",
      "LNG": -74.01443456451919,
      "LAT": 40.701829009109254,
      "DISTANCE_TO_FACILITY": 0.9906113272420498
    },
    {
      "BOROUGH": "Manhattan",
      "NAME": "CLARK STREET TUBE",
      "FACILITY_T": "Transportation Facility",
      "FACILITY_DOMAIN_NAME": "Tunnel",
      "LNG": -74.00541965652056,
      "LAT": 40.70121035727789,
      "DISTANCE_TO_FACILITY": 0.913750468372946
    },
    {
      "BOROUGH": "Manhattan",
      "NAME": "COENTIES SLIP PARK",
      "FACILITY_T": "Recreational Facility",
      "FACILITY_DOMAIN_NAME": "Park",
      "LNG": -74.01057092656316,
      "LAT": 40.70347675862492,
      "DISTANCE_TO_FACILITY": 0.4757646411438259
    },
    {
      "BOROUGH": "Manhattan",
      "NAME": "DOWNTOWN MANHATTAN HELIPORT",
      "FACILITY_T": "Transportation Facility",
      "FACILITY_DOMAIN_NAME": "Heliport",
      "LNG": -74.00892697500514,
      "LAT": 40.70121218470192,
      "DISTANCE_TO_FACILITY": 0.5446537236562676
    },
    {
      "BOROUGH": "Manhattan",
      "NAME": "FDNY ENGINE 4 LADDER 15",
      "FACILITY_T": "Public Safety",
      "FACILITY_DOMAIN_NAME": "FDNY Engine Company",
      "LNG": -74.00759267392716,
      "LAT": 40.703695214497756,
      "DISTANCE_TO_FACILITY": 0.39672638483430234
    },
    {
      "BOROUGH": "Manhattan",
      "NAME": "FRAUNCES TAVERN MUSEUM",
      "FACILITY_T": "Cultural Facility",
      "FACILITY_DOMAIN_NAME": "Museum",
      "LNG": -74.01135862978349,
      "LAT": 40.703409224920485,
      "DISTANCE_TO_FACILITY": 0.5706959397926141
    },
    {
      "BOROUGH": "Manhattan",
      "NAME": "GOVERNORS ISLAND FERRY MANHATTAN TERMINAL",
      "FACILITY_T": "Transportation Facility",
      "FACILITY_DOMAIN_NAME": "Ferry landing/terminal",
      "LNG": -74.01171806243481,
      "LAT": 40.70101840359337,
      "DISTANCE_TO_FACILITY": 0.875974131398749
    },
    {
      "BOROUGH": "Manhattan",
      "NAME": "GOVERNORS ISLAND FERRY RACK LOWER FOG LIGHTS (3)",
      "FACILITY_T": "Transportation Facility",
      "FACILITY_DOMAIN_NAME": "Water Navigation",
      "LNG": -74.01134484493454,
      "LAT": 40.70065278651453,
      "DISTANCE_TO_FACILITY": 0.8751304846204135
    },
    {
      "BOROUGH": "Manhattan",
      "NAME": "JORALEMON TUBE",
      "FACILITY_T": "Transportation Facility",
      "FACILITY_DOMAIN_NAME": "Tunnel",
      "LNG": -74.01002184383015,
      "LAT": 40.69888652747926,
      "DISTANCE_TO_FACILITY": 0.924332114947596
    },
    {
      "BOROUGH": "Manhattan",
      "NAME": "LEMAN MANHATTAN PREPARATORY LOWER SCHOOL",
      "FACILITY_T": "Education Facility",
      "FACILITY_DOMAIN_NAME": "Private/Parochial Early Childhood",
      "LNG": -74.01114126286575,
      "LAT": 40.70570546853076,
      "DISTANCE_TO_FACILITY": 0.291685171183218
    },